<?xml version="1.0" encoding="UTF-8"?>
<kml xmlns="http://www.opengis.net/kml/2.2">
<Document id="PrivateSchool">
  <name>PrivateSchool</name>
  <Snippet></Snippet>
  <Folder id="FeatureLayer0">
    <name>PrivateSchool</name>
  <Snippet></Snippet>
    <Placemark>
      <name>FIRST LUTHERAN PRESCHOOL</name>
      <styleUrl>#IconStyle00</styleUrl>
      <Snippet></Snippet>
      <Point>
        <extrude>0</extrude>
        <altitudeMode>relativeToGround</altitudeMode>
        <coordinates> -87.683690,41.654422,0.000000</coordinates>
      </Point>
    </Placemark>
    <Placemark>
      <name>LEO HIGH SCHOOL</name>
      <styleUrl>#IconStyle00</styleUrl>
      <Snippet></Snippet>
      <Point>
        <extrude>0</extrude>
        <altitudeMode>relativeToGround</altitudeMode>
        <coordinates> -87.647682,41.750584,0.000000</coordinates>
      </Point>
    </Placemark>
    <Placemark>
      <name>CATHERINE COOK SCHOOL</name>
      <styleUrl>#IconStyle00</styleUrl>
      <Snippet></Snippet>
      <Point>
        <extrude>0</extrude>
        <altitudeMode>relativeToGround</altitudeMode>
        <coordinates> -87.636467,41.907634,0.000000</coordinates>
      </Point>
    </Placemark>
    <Placemark>
      <name>ST PATRICK HIGH SCHOOL</name>
      <styleUrl>#IconStyle00</styleUrl>
      <Snippet></Snippet>
      <Point>
        <extrude>0</extrude>
        <altitudeMode>relativeToGround</altitudeMode>
        <coordinates> -87.773785,41.938480,0.000000</coordinates>
      </Point>
    </Placemark>
    <Placemark>
      <name>CHICAGO CHRISTIAN HIGH</name>
      <styleUrl>#IconStyle00</styleUrl>
      <Snippet></Snippet>
      <Point>
        <extrude>0</extrude>
        <altitudeMode>relativeToGround</altitudeMode>
        <coordinates> -87.787839,41.673664,0.000000</coordinates>
      </Point>
    </Placemark>
    <Placemark>
      <name>NORTH SHORE COUNTRY DAY SCHOOL</name>
      <styleUrl>#IconStyle00</styleUrl>
      <Snippet></Snippet>
      <Point>
        <extrude>0</extrude>
        <altitudeMode>relativeToGround</altitudeMode>
        <coordinates> -87.728452,42.099670,0.000000</coordinates>
      </Point>
    </Placemark>
    <Placemark>
      <name>ALBERT J SHEGOG CHRISTIAN ACADEMY</name>
      <styleUrl>#IconStyle00</styleUrl>
      <Snippet></Snippet>
      <Point>
        <extrude>0</extrude>
        <altitudeMode>relativeToGround</altitudeMode>
        <coordinates> -87.567969,41.576919,0.000000</coordinates>
      </Point>
    </Placemark>
    <Placemark>
      <name>CMECCA SCHOOL</name>
      <styleUrl>#IconStyle00</styleUrl>
      <Snippet></Snippet>
      <Point>
        <extrude>0</extrude>
        <altitudeMode>relativeToGround</altitudeMode>
        <coordinates> -87.607396,41.613479,0.000000</coordinates>
      </Point>
    </Placemark>
    <Placemark>
      <name>LATINO YOUTH ALTERNATIVE H S</name>
      <styleUrl>#IconStyle00</styleUrl>
      <Snippet></Snippet>
      <Point>
        <extrude>0</extrude>
        <altitudeMode>relativeToGround</altitudeMode>
        <coordinates> -87.699085,41.851702,0.000000</coordinates>
      </Point>
    </Placemark>
    <Placemark>
      <name>BROTHER RICE HIGH SCHOOL</name>
      <styleUrl>#IconStyle00</styleUrl>
      <Snippet></Snippet>
      <Point>
        <extrude>0</extrude>
        <altitudeMode>relativeToGround</altitudeMode>
        <coordinates> -87.721088,41.711298,0.000000</coordinates>
      </Point>
    </Placemark>
    <Placemark>
      <name>LAKE VIEW ACADEMY</name>
      <styleUrl>#IconStyle00</styleUrl>
      <Snippet></Snippet>
      <Point>
        <extrude>0</extrude>
        <altitudeMode>relativeToGround</altitudeMode>
        <coordinates> -87.647436,41.947321,0.000000</coordinates>
      </Point>
    </Placemark>
    <Placemark>
      <name>IDA CROWN JEWISH ACADEMY</name>
      <styleUrl>#IconStyle00</styleUrl>
      <Snippet></Snippet>
      <Point>
        <extrude>0</extrude>
        <altitudeMode>relativeToGround</altitudeMode>
        <coordinates> -87.701010,42.004828,0.000000</coordinates>
      </Point>
    </Placemark>
    <Placemark>
      <name>HINSDALE ADVENTIST ACADEMY</name>
      <styleUrl>#IconStyle00</styleUrl>
      <Snippet></Snippet>
      <Point>
        <extrude>0</extrude>
        <altitudeMode>relativeToGround</altitudeMode>
        <coordinates> -87.914331,41.808156,0.000000</coordinates>
      </Point>
    </Placemark>
    <Placemark>
      <name>DE LA SALLE INSTITUTE</name>
      <styleUrl>#IconStyle00</styleUrl>
      <Snippet></Snippet>
      <Point>
        <extrude>0</extrude>
        <altitudeMode>relativeToGround</altitudeMode>
        <coordinates> -87.625003,41.832866,0.000000</coordinates>
      </Point>
    </Placemark>
    <Placemark>
      <name>HAJIRAH EDUCATION PROGRAM</name>
      <styleUrl>#IconStyle00</styleUrl>
      <Snippet></Snippet>
      <Point>
        <extrude>0</extrude>
        <altitudeMode>relativeToGround</altitudeMode>
        <coordinates> -87.691105,41.997748,0.000000</coordinates>
      </Point>
    </Placemark>
    <Placemark>
      <name>SETON ACADEMY</name>
      <styleUrl>#IconStyle00</styleUrl>
      <Snippet></Snippet>
      <Point>
        <extrude>0</extrude>
        <altitudeMode>relativeToGround</altitudeMode>
        <coordinates> -87.586340,41.602641,0.000000</coordinates>
      </Point>
    </Placemark>
    <Placemark>
      <name>FAULKNER SCHOOL</name>
      <styleUrl>#IconStyle00</styleUrl>
      <Snippet></Snippet>
      <Point>
        <extrude>0</extrude>
        <altitudeMode>relativeToGround</altitudeMode>
        <coordinates> -87.564603,41.766204,0.000000</coordinates>
      </Point>
    </Placemark>
    <Placemark>
      <name>FENWICK HIGH SCHOOL</name>
      <styleUrl>#IconStyle00</styleUrl>
      <Snippet></Snippet>
      <Point>
        <extrude>0</extrude>
        <altitudeMode>relativeToGround</altitudeMode>
        <coordinates> -87.788201,41.881648,0.000000</coordinates>
      </Point>
    </Placemark>
    <Placemark>
      <name>GLENWOOD SCHOOL</name>
      <styleUrl>#IconStyle00</styleUrl>
      <Snippet></Snippet>
      <Point>
        <extrude>0</extrude>
        <altitudeMode>relativeToGround</altitudeMode>
        <coordinates> -87.636044,41.549638,0.000000</coordinates>
      </Point>
    </Placemark>
    <Placemark>
      <name>GORDON TECH HIGH SCHOOL</name>
      <styleUrl>#IconStyle00</styleUrl>
      <Snippet></Snippet>
      <Point>
        <extrude>0</extrude>
        <altitudeMode>relativeToGround</altitudeMode>
        <coordinates> -87.698070,41.947980,0.000000</coordinates>
      </Point>
    </Placemark>
    <Placemark>
      <name>HALES FRANCISCAN HIGH SCHOOL</name>
      <styleUrl>#IconStyle00</styleUrl>
      <Snippet></Snippet>
      <Point>
        <extrude>0</extrude>
        <altitudeMode>relativeToGround</altitudeMode>
        <coordinates> -87.606468,41.804953,0.000000</coordinates>
      </Point>
    </Placemark>
    <Placemark>
      <name>LIBERTY SCHOOL OF CHRISTRIAN EDUC</name>
      <styleUrl>#IconStyle00</styleUrl>
      <Snippet></Snippet>
      <Point>
        <extrude>0</extrude>
        <altitudeMode>relativeToGround</altitudeMode>
        <coordinates> -87.597867,41.782132,0.000000</coordinates>
      </Point>
    </Placemark>
    <Placemark>
      <name>EMMANUEL CHRISTIAN SCHOOL</name>
      <styleUrl>#IconStyle00</styleUrl>
      <Snippet></Snippet>
      <Point>
        <extrude>0</extrude>
        <altitudeMode>relativeToGround</altitudeMode>
        <coordinates> -87.672960,41.742816,0.000000</coordinates>
      </Point>
    </Placemark>
    <Placemark>
      <name>STEPPING STONES EARLY CHILDHOOD</name>
      <styleUrl>#IconStyle00</styleUrl>
      <Snippet></Snippet>
      <Point>
        <extrude>0</extrude>
        <altitudeMode>relativeToGround</altitudeMode>
        <coordinates> -87.592626,41.758708,0.000000</coordinates>
      </Point>
    </Placemark>
    <Placemark>
      <name>HOLY TRINITY HIGH SCHOOL</name>
      <styleUrl>#IconStyle00</styleUrl>
      <Snippet></Snippet>
      <Point>
        <extrude>0</extrude>
        <altitudeMode>relativeToGround</altitudeMode>
        <coordinates> -87.664705,41.903376,0.000000</coordinates>
      </Point>
    </Placemark>
    <Placemark>
      <name>ILLIANA CHRISTIAN HIGH SCHOOL</name>
      <styleUrl>#IconStyle00</styleUrl>
      <Snippet></Snippet>
      <Point>
        <extrude>0</extrude>
        <altitudeMode>relativeToGround</altitudeMode>
        <coordinates> -87.561780,41.566558,0.000000</coordinates>
      </Point>
    </Placemark>
    <Placemark>
      <name>IMMACULATE HEART OF MARY HIGH</name>
      <styleUrl>#IconStyle00</styleUrl>
      <Snippet></Snippet>
      <Point>
        <extrude>0</extrude>
        <altitudeMode>relativeToGround</altitudeMode>
        <coordinates> -87.893501,41.848344,0.000000</coordinates>
      </Point>
    </Placemark>
    <Placemark>
      <name>JOSEPHINUM ACADEMY</name>
      <styleUrl>#IconStyle00</styleUrl>
      <Snippet></Snippet>
      <Point>
        <extrude>0</extrude>
        <altitudeMode>relativeToGround</altitudeMode>
        <coordinates> -87.684742,41.908921,0.000000</coordinates>
      </Point>
    </Placemark>
    <Placemark>
      <name>UNIVERSITY OF CHICAGO LAB SCHS</name>
      <styleUrl>#IconStyle00</styleUrl>
      <Snippet></Snippet>
      <Point>
        <extrude>0</extrude>
        <altitudeMode>relativeToGround</altitudeMode>
        <coordinates> -87.594027,41.787829,0.000000</coordinates>
      </Point>
    </Placemark>
    <Placemark>
      <name>ST GREGORY HIGH SCHOOL</name>
      <styleUrl>#IconStyle00</styleUrl>
      <Snippet></Snippet>
      <Point>
        <extrude>0</extrude>
        <altitudeMode>relativeToGround</altitudeMode>
        <coordinates> -87.671381,41.983450,0.000000</coordinates>
      </Point>
    </Placemark>
    <Placemark>
      <name>LATIN SCHOOL OF CHICAGO</name>
      <styleUrl>#IconStyle00</styleUrl>
      <Snippet></Snippet>
      <Point>
        <extrude>0</extrude>
        <altitudeMode>relativeToGround</altitudeMode>
        <coordinates> -87.631257,41.911195,0.000000</coordinates>
      </Point>
    </Placemark>
    <Placemark>
      <name>ANGEL TOWN PRIVATE SCHOOL</name>
      <styleUrl>#IconStyle00</styleUrl>
      <Snippet></Snippet>
      <Point>
        <extrude>0</extrude>
        <altitudeMode>relativeToGround</altitudeMode>
        <coordinates> -87.878417,42.009836,0.000000</coordinates>
      </Point>
    </Placemark>
    <Placemark>
      <name>LOYOLA ACADEMY</name>
      <styleUrl>#IconStyle00</styleUrl>
      <Snippet></Snippet>
      <Point>
        <extrude>0</extrude>
        <altitudeMode>relativeToGround</altitudeMode>
        <coordinates> -87.761413,42.083386,0.000000</coordinates>
      </Point>
    </Placemark>
    <Placemark>
      <name>LUTHER HIGH SCHOOL NORTH</name>
      <styleUrl>#IconStyle00</styleUrl>
      <Snippet></Snippet>
      <Point>
        <extrude>0</extrude>
        <altitudeMode>relativeToGround</altitudeMode>
        <coordinates> -87.770176,41.956791,0.000000</coordinates>
      </Point>
    </Placemark>
    <Placemark>
      <name>LUTHER HIGH SCHOOL SOUTH ASSOC</name>
      <styleUrl>#IconStyle00</styleUrl>
      <Snippet></Snippet>
      <Point>
        <extrude>0</extrude>
        <altitudeMode>relativeToGround</altitudeMode>
        <coordinates> -87.700009,41.735229,0.000000</coordinates>
      </Point>
    </Placemark>
    <Placemark>
      <name>MARIA HIGH SCHOOL</name>
      <styleUrl>#IconStyle00</styleUrl>
      <Snippet></Snippet>
      <Point>
        <extrude>0</extrude>
        <altitudeMode>relativeToGround</altitudeMode>
        <coordinates> -87.693185,41.770997,0.000000</coordinates>
      </Point>
    </Placemark>
    <Placemark>
      <name>IMMACULATE CONCEPTION</name>
      <styleUrl>#IconStyle00</styleUrl>
      <Snippet></Snippet>
      <Point>
        <extrude>0</extrude>
        <altitudeMode>relativeToGround</altitudeMode>
        <coordinates> -87.636580,41.908429,0.000000</coordinates>
      </Point>
    </Placemark>
    <Placemark>
      <name>MARIAN CATHOLIC HIGH SCHOOL</name>
      <styleUrl>#IconStyle00</styleUrl>
      <Snippet></Snippet>
      <Point>
        <extrude>0</extrude>
        <altitudeMode>relativeToGround</altitudeMode>
        <coordinates> -87.655024,41.519979,0.000000</coordinates>
      </Point>
    </Placemark>
    <Placemark>
      <name>MARIST HIGH SCHOOL</name>
      <styleUrl>#IconStyle00</styleUrl>
      <Snippet></Snippet>
      <Point>
        <extrude>0</extrude>
        <altitudeMode>relativeToGround</altitudeMode>
        <coordinates> -87.724898,41.683882,0.000000</coordinates>
      </Point>
    </Placemark>
    <Placemark>
      <name>PARK VIEW MONTESSORI INC</name>
      <styleUrl>#IconStyle00</styleUrl>
      <Snippet></Snippet>
      <Point>
        <extrude>0</extrude>
        <altitudeMode>relativeToGround</altitudeMode>
        <coordinates> -87.898277,42.081496,0.000000</coordinates>
      </Point>
    </Placemark>
    <Placemark>
      <name>MOTHER MCAULEY LIBERAL ARTS H S</name>
      <styleUrl>#IconStyle00</styleUrl>
      <Snippet></Snippet>
      <Point>
        <extrude>0</extrude>
        <altitudeMode>relativeToGround</altitudeMode>
        <coordinates> -87.715365,41.713255,0.000000</coordinates>
      </Point>
    </Placemark>
    <Placemark>
      <name>MORGAN PARK ACADEMY</name>
      <styleUrl>#IconStyle00</styleUrl>
      <Snippet></Snippet>
      <Point>
        <extrude>0</extrude>
        <altitudeMode>relativeToGround</altitudeMode>
        <coordinates> -87.676021,41.691857,0.000000</coordinates>
      </Point>
    </Placemark>
    <Placemark>
      <name>IMMACULATE CONCEPTION</name>
      <styleUrl>#IconStyle00</styleUrl>
      <Snippet></Snippet>
      <Point>
        <extrude>0</extrude>
        <altitudeMode>relativeToGround</altitudeMode>
        <coordinates> -87.552790,41.736171,0.000000</coordinates>
      </Point>
    </Placemark>
    <Placemark>
      <name>GUERIN COLLEGE PREP HIGH SCH</name>
      <styleUrl>#IconStyle00</styleUrl>
      <Snippet></Snippet>
      <Point>
        <extrude>0</extrude>
        <altitudeMode>relativeToGround</altitudeMode>
        <coordinates> -87.827522,41.937729,0.000000</coordinates>
      </Point>
    </Placemark>
    <Placemark>
      <name>MOUNT ASSISI ACADEMY</name>
      <styleUrl>#IconStyle00</styleUrl>
      <Snippet></Snippet>
      <Point>
        <extrude>0</extrude>
        <altitudeMode>relativeToGround</altitudeMode>
        <coordinates> -87.961104,41.684282,0.000000</coordinates>
      </Point>
    </Placemark>
    <Placemark>
      <name>MT CARMEL HIGH SCHOOL</name>
      <styleUrl>#IconStyle00</styleUrl>
      <Snippet></Snippet>
      <Point>
        <extrude>0</extrude>
        <altitudeMode>relativeToGround</altitudeMode>
        <coordinates> -87.589647,41.777975,0.000000</coordinates>
      </Point>
    </Placemark>
    <Placemark>
      <name>SAN MIGUEL SCH-GARY COMER CAMPUS</name>
      <styleUrl>#IconStyle00</styleUrl>
      <Snippet></Snippet>
      <Point>
        <extrude>0</extrude>
        <altitudeMode>relativeToGround</altitudeMode>
        <coordinates> -87.754394,41.895566,0.000000</coordinates>
      </Point>
    </Placemark>
    <Placemark>
      <name>NOTRE DAME HIGH SCHOOL FOR BOYS</name>
      <styleUrl>#IconStyle00</styleUrl>
      <Snippet></Snippet>
      <Point>
        <extrude>0</extrude>
        <altitudeMode>relativeToGround</altitudeMode>
        <coordinates> -87.817153,42.040550,0.000000</coordinates>
      </Point>
    </Placemark>
    <Placemark>
      <name>NOTRE DAME HIGH SCHOOL FOR GIRLS</name>
      <styleUrl>#IconStyle00</styleUrl>
      <Snippet></Snippet>
      <Point>
        <extrude>0</extrude>
        <altitudeMode>relativeToGround</altitudeMode>
        <coordinates> -87.770017,41.934925,0.000000</coordinates>
      </Point>
    </Placemark>
    <Placemark>
      <name>GLENVIEW MONTESSORI SCHOOL</name>
      <styleUrl>#IconStyle00</styleUrl>
      <Snippet></Snippet>
      <Point>
        <extrude>0</extrude>
        <altitudeMode>relativeToGround</altitudeMode>
        <coordinates> -87.798763,42.102920,0.000000</coordinates>
      </Point>
    </Placemark>
    <Placemark>
      <name>PROVIDENCE - ST MEL SCHOOL</name>
      <styleUrl>#IconStyle00</styleUrl>
      <Snippet></Snippet>
      <Point>
        <extrude>0</extrude>
        <altitudeMode>relativeToGround</altitudeMode>
        <coordinates> -87.715837,41.879109,0.000000</coordinates>
      </Point>
    </Placemark>
    <Placemark>
      <name>QUEEN OF PEACE HIGH SCHOOL</name>
      <styleUrl>#IconStyle00</styleUrl>
      <Snippet></Snippet>
      <Point>
        <extrude>0</extrude>
        <altitudeMode>relativeToGround</altitudeMode>
        <coordinates> -87.758463,41.752530,0.000000</coordinates>
      </Point>
    </Placemark>
    <Placemark>
      <name>ARCHBISHOP QUIGLEY SEMINARY</name>
      <styleUrl>#IconStyle00</styleUrl>
      <Snippet></Snippet>
      <Point>
        <extrude>0</extrude>
        <altitudeMode>relativeToGround</altitudeMode>
        <coordinates> -87.625576,41.898366,0.000000</coordinates>
      </Point>
    </Placemark>
    <Placemark>
      <name>SOUTH CENTRAL COMM SERV INC</name>
      <styleUrl>#IconStyle00</styleUrl>
      <Snippet></Snippet>
      <Point>
        <extrude>0</extrude>
        <altitudeMode>relativeToGround</altitudeMode>
        <coordinates> -87.599281,41.744043,0.000000</coordinates>
      </Point>
    </Placemark>
    <Placemark>
      <name>REGINA DOMINICAN HIGH SCHOOL</name>
      <styleUrl>#IconStyle00</styleUrl>
      <Snippet></Snippet>
      <Point>
        <extrude>0</extrude>
        <altitudeMode>relativeToGround</altitudeMode>
        <coordinates> -87.742091,42.075443,0.000000</coordinates>
      </Point>
    </Placemark>
    <Placemark>
      <name>RESURRECTION HIGH SCHOOL</name>
      <styleUrl>#IconStyle00</styleUrl>
      <Snippet></Snippet>
      <Point>
        <extrude>0</extrude>
        <altitudeMode>relativeToGround</altitudeMode>
        <coordinates> -87.815593,41.990035,0.000000</coordinates>
      </Point>
    </Placemark>
    <Placemark>
      <name>CHEDER LUBAVITCH</name>
      <styleUrl>#IconStyle00</styleUrl>
      <Snippet></Snippet>
      <Point>
        <extrude>0</extrude>
        <altitudeMode>relativeToGround</altitudeMode>
        <coordinates> -87.758218,42.019113,0.000000</coordinates>
      </Point>
    </Placemark>
    <Placemark>
      <name>PROLOGUE</name>
      <styleUrl>#IconStyle00</styleUrl>
      <Snippet></Snippet>
      <Point>
        <extrude>0</extrude>
        <altitudeMode>relativeToGround</altitudeMode>
        <coordinates> -87.646641,41.954614,0.000000</coordinates>
      </Point>
    </Placemark>
    <Placemark>
      <name>VALLEY KINGDOM CHRISTIAN ACADEMY</name>
      <styleUrl>#IconStyle00</styleUrl>
      <Snippet></Snippet>
      <Point>
        <extrude>0</extrude>
        <altitudeMode>relativeToGround</altitudeMode>
        <coordinates> -87.748869,41.621376,0.000000</coordinates>
      </Point>
    </Placemark>
    <Placemark>
      <name>JORDAN BAPTIST SCHOOL</name>
      <styleUrl>#IconStyle00</styleUrl>
      <Snippet></Snippet>
      <Point>
        <extrude>0</extrude>
        <altitudeMode>relativeToGround</altitudeMode>
        <coordinates> -87.747320,41.734418,0.000000</coordinates>
      </Point>
    </Placemark>
    <Placemark>
      <name>COMM CHRISTIAN ALTERNATIVE ACAD</name>
      <styleUrl>#IconStyle00</styleUrl>
      <Snippet></Snippet>
      <Point>
        <extrude>0</extrude>
        <altitudeMode>relativeToGround</altitudeMode>
        <coordinates> -87.725144,41.865356,0.000000</coordinates>
      </Point>
    </Placemark>
    <Placemark>
      <name>JAMES MEMORIAL CHRISTIAN ACADEMY</name>
      <styleUrl>#IconStyle00</styleUrl>
      <Snippet></Snippet>
      <Point>
        <extrude>0</extrude>
        <altitudeMode>relativeToGround</altitudeMode>
        <coordinates> -87.840097,41.879745,0.000000</coordinates>
      </Point>
    </Placemark>
    <Placemark>
      <name>ST BENEDICT HIGH SCHOOL</name>
      <styleUrl>#IconStyle00</styleUrl>
      <Snippet></Snippet>
      <Point>
        <extrude>0</extrude>
        <altitudeMode>relativeToGround</altitudeMode>
        <coordinates> -87.683557,41.952271,0.000000</coordinates>
      </Point>
    </Placemark>
    <Placemark>
      <name>OUR LADY OF TEPEYAC HIGH SCHOOL</name>
      <styleUrl>#IconStyle00</styleUrl>
      <Snippet></Snippet>
      <Point>
        <extrude>0</extrude>
        <altitudeMode>relativeToGround</altitudeMode>
        <coordinates> -87.701533,41.850342,0.000000</coordinates>
      </Point>
    </Placemark>
    <Placemark>
      <name>ST FRANCIS DE SALES HIGH SCHOOL</name>
      <styleUrl>#IconStyle00</styleUrl>
      <Snippet></Snippet>
      <Point>
        <extrude>0</extrude>
        <altitudeMode>relativeToGround</altitudeMode>
        <coordinates> -87.535283,41.710366,0.000000</coordinates>
      </Point>
    </Placemark>
    <Placemark>
      <name>AQUINAS ACADEMY</name>
      <styleUrl>#IconStyle00</styleUrl>
      <Snippet></Snippet>
      <Point>
        <extrude>0</extrude>
        <altitudeMode>relativeToGround</altitudeMode>
        <coordinates> -87.820916,41.689394,0.000000</coordinates>
      </Point>
    </Placemark>
    <Placemark>
      <name>ST SAVA SCHOOL</name>
      <styleUrl>#IconStyle00</styleUrl>
      <Snippet></Snippet>
      <Point>
        <extrude>0</extrude>
        <altitudeMode>relativeToGround</altitudeMode>
        <coordinates> -87.828178,41.983841,0.000000</coordinates>
      </Point>
    </Placemark>
    <Placemark>
      <name>BRENTWOOD BAPTIST CHRISTIAN ACAD</name>
      <styleUrl>#IconStyle00</styleUrl>
      <Snippet></Snippet>
      <Point>
        <extrude>0</extrude>
        <altitudeMode>relativeToGround</altitudeMode>
        <coordinates> -87.927929,42.041219,0.000000</coordinates>
      </Point>
    </Placemark>
    <Placemark>
      <name>ST IGNATIUS COLLEGE PREP</name>
      <styleUrl>#IconStyle00</styleUrl>
      <Snippet></Snippet>
      <Point>
        <extrude>0</extrude>
        <altitudeMode>relativeToGround</altitudeMode>
        <coordinates> -87.654226,41.867100,0.000000</coordinates>
      </Point>
    </Placemark>
    <Placemark>
      <name>ST JOSEPH HIGH SCHOOL</name>
      <styleUrl>#IconStyle00</styleUrl>
      <Snippet></Snippet>
      <Point>
        <extrude>0</extrude>
        <altitudeMode>relativeToGround</altitudeMode>
        <coordinates> -87.891748,41.852218,0.000000</coordinates>
      </Point>
    </Placemark>
    <Placemark>
      <name>ST LAURENCE HIGH SCHOOL</name>
      <styleUrl>#IconStyle00</styleUrl>
      <Snippet></Snippet>
      <Point>
        <extrude>0</extrude>
        <altitudeMode>relativeToGround</altitudeMode>
        <coordinates> -87.759685,41.752510,0.000000</coordinates>
      </Point>
    </Placemark>
    <Placemark>
      <name>TRANSITIONAL ARTS ACADEMY</name>
      <styleUrl>#IconStyle00</styleUrl>
      <Snippet></Snippet>
      <Point>
        <extrude>0</extrude>
        <altitudeMode>relativeToGround</altitudeMode>
        <coordinates> -87.640969,41.909614,0.000000</coordinates>
      </Point>
    </Placemark>
    <Placemark>
      <name>BETHEL CHRISTIAN SCHOOL</name>
      <styleUrl>#IconStyle00</styleUrl>
      <Snippet></Snippet>
      <Point>
        <extrude>0</extrude>
        <altitudeMode>relativeToGround</altitudeMode>
        <coordinates> -87.731011,41.883300,0.000000</coordinates>
      </Point>
    </Placemark>
    <Placemark>
      <name>CHIARAVALLE MONTESSORI SCHOOL</name>
      <styleUrl>#IconStyle00</styleUrl>
      <Snippet></Snippet>
      <Point>
        <extrude>0</extrude>
        <altitudeMode>relativeToGround</altitudeMode>
        <coordinates> -87.677382,42.041149,0.000000</coordinates>
      </Point>
    </Placemark>
    <Placemark>
      <name>YRBRIS INSTITUTE</name>
      <styleUrl>#IconStyle00</styleUrl>
      <Snippet></Snippet>
      <Point>
        <extrude>0</extrude>
        <altitudeMode>relativeToGround</altitudeMode>
        <coordinates> -87.642256,41.557046,0.000000</coordinates>
      </Point>
    </Placemark>
    <Placemark>
      <name>ST PETER LUTHERAN SCHOOL</name>
      <styleUrl>#IconStyle00</styleUrl>
      <Snippet></Snippet>
      <Point>
        <extrude>0</extrude>
        <altitudeMode>relativeToGround</altitudeMode>
        <coordinates> -87.985187,42.099196,0.000000</coordinates>
      </Point>
    </Placemark>
    <Placemark>
      <name>EAGLES WINGS URBAN ACADEMY</name>
      <styleUrl>#IconStyle00</styleUrl>
      <Snippet></Snippet>
      <Point>
        <extrude>0</extrude>
        <altitudeMode>relativeToGround</altitudeMode>
        <coordinates> -87.691867,41.994069,0.000000</coordinates>
      </Point>
    </Placemark>
    <Placemark>
      <name>MARIN PREPARATORY SCHOOL</name>
      <styleUrl>#IconStyle00</styleUrl>
      <Snippet></Snippet>
      <Point>
        <extrude>0</extrude>
        <altitudeMode>relativeToGround</altitudeMode>
        <coordinates> -87.634352,41.884467,0.000000</coordinates>
      </Point>
    </Placemark>
    <Placemark>
      <name>FIRST ROMANIAN FAMILY BAPTIST</name>
      <styleUrl>#IconStyle00</styleUrl>
      <Snippet></Snippet>
      <Point>
        <extrude>0</extrude>
        <altitudeMode>relativeToGround</altitudeMode>
        <coordinates> -87.766930,41.950947,0.000000</coordinates>
      </Point>
    </Placemark>
    <Placemark>
      <name>NORTHWEST INST FOR CONTEMP ACAD</name>
      <styleUrl>#IconStyle00</styleUrl>
      <Snippet></Snippet>
      <Point>
        <extrude>0</extrude>
        <altitudeMode>relativeToGround</altitudeMode>
        <coordinates> -87.754228,41.902265,0.000000</coordinates>
      </Point>
    </Placemark>
    <Placemark>
      <name>ST RITA HIGH SCHOOL</name>
      <styleUrl>#IconStyle00</styleUrl>
      <Snippet></Snippet>
      <Point>
        <extrude>0</extrude>
        <altitudeMode>relativeToGround</altitudeMode>
        <coordinates> -87.682912,41.752647,0.000000</coordinates>
      </Point>
    </Placemark>
    <Placemark>
      <name>ST SCHOLASTICA ACADEMY</name>
      <styleUrl>#IconStyle00</styleUrl>
      <Snippet></Snippet>
      <Point>
        <extrude>0</extrude>
        <altitudeMode>relativeToGround</altitudeMode>
        <coordinates> -87.684238,42.016007,0.000000</coordinates>
      </Point>
    </Placemark>
    <Placemark>
      <name>PACTT LEARNING CENTER</name>
      <styleUrl>#IconStyle00</styleUrl>
      <Snippet></Snippet>
      <Point>
        <extrude>0</extrude>
        <altitudeMode>relativeToGround</altitudeMode>
        <coordinates> -87.667995,42.011749,0.000000</coordinates>
      </Point>
    </Placemark>
    <Placemark>
      <name>ST VIATOR HIGH SCHOOL</name>
      <styleUrl>#IconStyle00</styleUrl>
      <Snippet></Snippet>
      <Point>
        <extrude>0</extrude>
        <altitudeMode>relativeToGround</altitudeMode>
        <coordinates> -87.969348,42.095473,0.000000</coordinates>
      </Point>
    </Placemark>
    <Placemark>
      <name>SKOKIE MONTESSORI SCHOOL</name>
      <styleUrl>#IconStyle00</styleUrl>
      <Snippet></Snippet>
      <Point>
        <extrude>0</extrude>
        <altitudeMode>relativeToGround</altitudeMode>
        <coordinates> -87.730393,42.033971,0.000000</coordinates>
      </Point>
    </Placemark>
    <Placemark>
      <name>CHICAGO WALDORF SCHOOL</name>
      <styleUrl>#IconStyle00</styleUrl>
      <Snippet></Snippet>
      <Point>
        <extrude>0</extrude>
        <altitudeMode>relativeToGround</altitudeMode>
        <coordinates> -87.663580,42.001389,0.000000</coordinates>
      </Point>
    </Placemark>
    <Placemark>
      <name>PUERTO RICAN H S - PEDRO A CAMPOS</name>
      <styleUrl>#IconStyle00</styleUrl>
      <Snippet></Snippet>
      <Point>
        <extrude>0</extrude>
        <altitudeMode>relativeToGround</altitudeMode>
        <coordinates> -87.695920,41.902933,0.000000</coordinates>
      </Point>
    </Placemark>
    <Placemark>
      <name>TELSHE HIGH SCHOOL</name>
      <styleUrl>#IconStyle00</styleUrl>
      <Snippet></Snippet>
      <Point>
        <extrude>0</extrude>
        <altitudeMode>relativeToGround</altitudeMode>
        <coordinates> -87.717490,41.975647,0.000000</coordinates>
      </Point>
    </Placemark>
    <Placemark>
      <name>TRINITY HIGH SCHOOL</name>
      <styleUrl>#IconStyle00</styleUrl>
      <Snippet></Snippet>
      <Point>
        <extrude>0</extrude>
        <altitudeMode>relativeToGround</altitudeMode>
        <coordinates> -87.814342,41.901366,0.000000</coordinates>
      </Point>
    </Placemark>
    <Placemark>
      <name>TABERNACLE CHRISTIAN ACADEMY</name>
      <styleUrl>#IconStyle00</styleUrl>
      <Snippet></Snippet>
      <Point>
        <extrude>0</extrude>
        <altitudeMode>relativeToGround</altitudeMode>
        <coordinates> -87.653281,41.694956,0.000000</coordinates>
      </Point>
    </Placemark>
    <Placemark>
      <name>WALTHER LUTHERAN HIGH SCHOOL</name>
      <styleUrl>#IconStyle00</styleUrl>
      <Snippet></Snippet>
      <Point>
        <extrude>0</extrude>
        <altitudeMode>relativeToGround</altitudeMode>
        <coordinates> -87.845539,41.893440,0.000000</coordinates>
      </Point>
    </Placemark>
    <Placemark>
      <name>FASMAN YESHIVA HIGH SCHOOL</name>
      <styleUrl>#IconStyle00</styleUrl>
      <Snippet></Snippet>
      <Point>
        <extrude>0</extrude>
        <altitudeMode>relativeToGround</altitudeMode>
        <coordinates> -87.761644,42.010649,0.000000</coordinates>
      </Point>
    </Placemark>
    <Placemark>
      <name>SALEM LUTHERAN SCHOOL</name>
      <styleUrl>#IconStyle00</styleUrl>
      <Snippet></Snippet>
      <Point>
        <extrude>0</extrude>
        <altitudeMode>relativeToGround</altitudeMode>
        <coordinates> -87.684909,41.657668,0.000000</coordinates>
      </Point>
    </Placemark>
    <Placemark>
      <name>ST PAUL LUTHERAN</name>
      <styleUrl>#IconStyle00</styleUrl>
      <Snippet></Snippet>
      <Point>
        <extrude>0</extrude>
        <altitudeMode>relativeToGround</altitudeMode>
        <coordinates> -87.848034,41.823991,0.000000</coordinates>
      </Point>
    </Placemark>
    <Placemark>
      <name>ST PAULS LUTHERAN SCHOOL</name>
      <styleUrl>#IconStyle00</styleUrl>
      <Snippet></Snippet>
      <Point>
        <extrude>0</extrude>
        <altitudeMode>relativeToGround</altitudeMode>
        <coordinates> -87.656303,41.514217,0.000000</coordinates>
      </Point>
    </Placemark>
    <Placemark>
      <name>IMMANUEL LUTHERAN</name>
      <styleUrl>#IconStyle00</styleUrl>
      <Snippet></Snippet>
      <Point>
        <extrude>0</extrude>
        <altitudeMode>relativeToGround</altitudeMode>
        <coordinates> -87.890481,42.038118,0.000000</coordinates>
      </Point>
    </Placemark>
    <Placemark>
      <name>BARBEREUX SCHOOL</name>
      <styleUrl>#IconStyle00</styleUrl>
      <Snippet></Snippet>
      <Point>
        <extrude>0</extrude>
        <altitudeMode>relativeToGround</altitudeMode>
        <coordinates> -87.726154,42.063612,0.000000</coordinates>
      </Point>
    </Placemark>
    <Placemark>
      <name>ST JOHN LUTHERAN SCHOOL</name>
      <styleUrl>#IconStyle00</styleUrl>
      <Snippet></Snippet>
      <Point>
        <extrude>0</extrude>
        <altitudeMode>relativeToGround</altitudeMode>
        <coordinates> -87.808782,41.880655,0.000000</coordinates>
      </Point>
    </Placemark>
    <Placemark>
      <name>IMMANUEL LUTHERAN SCHOOL</name>
      <styleUrl>#IconStyle00</styleUrl>
      <Snippet></Snippet>
      <Point>
        <extrude>0</extrude>
        <altitudeMode>relativeToGround</altitudeMode>
        <coordinates> -87.901270,41.845628,0.000000</coordinates>
      </Point>
    </Placemark>
    <Placemark>
      <name>TRINITY LUTHERAN</name>
      <styleUrl>#IconStyle00</styleUrl>
      <Snippet></Snippet>
      <Point>
        <extrude>0</extrude>
        <altitudeMode>relativeToGround</altitudeMode>
        <coordinates> -87.903277,41.738723,0.000000</coordinates>
      </Point>
    </Placemark>
    <Placemark>
      <name>CHOIR ACAD OF CHGO CHILDS CHOIR</name>
      <styleUrl>#IconStyle00</styleUrl>
      <Snippet></Snippet>
      <Point>
        <extrude>0</extrude>
        <altitudeMode>relativeToGround</altitudeMode>
        <coordinates> -87.667835,41.825710,0.000000</coordinates>
      </Point>
    </Placemark>
    <Placemark>
      <name>ST JOHNS LUTHERAN SCHOOL</name>
      <styleUrl>#IconStyle00</styleUrl>
      <Snippet></Snippet>
      <Point>
        <extrude>0</extrude>
        <altitudeMode>relativeToGround</altitudeMode>
        <coordinates> -87.880537,41.804420,0.000000</coordinates>
      </Point>
    </Placemark>
    <Placemark>
      <name>ST JOHN LUTHERAN SCHOOL</name>
      <styleUrl>#IconStyle00</styleUrl>
      <Snippet></Snippet>
      <Point>
        <extrude>0</extrude>
        <altitudeMode>relativeToGround</altitudeMode>
        <coordinates> -87.529645,41.566028,0.000000</coordinates>
      </Point>
    </Placemark>
    <Placemark>
      <name>TRINITY LUTHERAN</name>
      <styleUrl>#IconStyle00</styleUrl>
      <Snippet></Snippet>
      <Point>
        <extrude>0</extrude>
        <altitudeMode>relativeToGround</altitudeMode>
        <coordinates> -87.555879,41.565599,0.000000</coordinates>
      </Point>
    </Placemark>
    <Placemark>
      <name>LUTHER EAST HIGH SCHOOL</name>
      <styleUrl>#IconStyle00</styleUrl>
      <Snippet></Snippet>
      <Point>
        <extrude>0</extrude>
        <altitudeMode>relativeToGround</altitudeMode>
        <coordinates> -87.550236,41.542779,0.000000</coordinates>
      </Point>
    </Placemark>
    <Placemark>
      <name>NEW WAY LEARNING CENTER</name>
      <styleUrl>#IconStyle00</styleUrl>
      <Snippet></Snippet>
      <Point>
        <extrude>0</extrude>
        <altitudeMode>relativeToGround</altitudeMode>
        <coordinates> -87.785389,41.921865,0.000000</coordinates>
      </Point>
    </Placemark>
    <Placemark>
      <name>ZION LUTHERAN SCHOOL</name>
      <styleUrl>#IconStyle00</styleUrl>
      <Snippet></Snippet>
      <Point>
        <extrude>0</extrude>
        <altitudeMode>relativeToGround</altitudeMode>
        <coordinates> -87.709785,41.497500,0.000000</coordinates>
      </Point>
    </Placemark>
    <Placemark>
      <name>J SLOWACKI SCHOOL</name>
      <styleUrl>#IconStyle00</styleUrl>
      <Snippet></Snippet>
      <Point>
        <extrude>0</extrude>
        <altitudeMode>relativeToGround</altitudeMode>
        <coordinates> -87.919793,42.139478,0.000000</coordinates>
      </Point>
    </Placemark>
    <Placemark>
      <name>ST PAUL LUTHERAN SCHOOL</name>
      <styleUrl>#IconStyle00</styleUrl>
      <Snippet></Snippet>
      <Point>
        <extrude>0</extrude>
        <altitudeMode>relativeToGround</altitudeMode>
        <coordinates> -87.845409,41.891006,0.000000</coordinates>
      </Point>
    </Placemark>
    <Placemark>
      <name>ST PAUL LUTHERAN SCHOOL</name>
      <styleUrl>#IconStyle00</styleUrl>
      <Snippet></Snippet>
      <Point>
        <extrude>0</extrude>
        <altitudeMode>relativeToGround</altitudeMode>
        <coordinates> -87.931216,42.065790,0.000000</coordinates>
      </Point>
    </Placemark>
    <Placemark>
      <name>BUFFALO GROVE MONTESSORI</name>
      <styleUrl>#IconStyle00</styleUrl>
      <Snippet></Snippet>
      <Point>
        <extrude>0</extrude>
        <altitudeMode>relativeToGround</altitudeMode>
        <coordinates> -87.962732,42.138435,0.000000</coordinates>
      </Point>
    </Placemark>
    <Placemark>
      <name>INFINITY SCHOOL OF CHICAGO</name>
      <styleUrl>#IconStyle00</styleUrl>
      <Snippet></Snippet>
      <Point>
        <extrude>0</extrude>
        <altitudeMode>relativeToGround</altitudeMode>
        <coordinates> -87.714133,41.750423,0.000000</coordinates>
      </Point>
    </Placemark>
    <Placemark>
      <name>FOREST PRK MONTESSORI CHD DEV CTR</name>
      <styleUrl>#IconStyle00</styleUrl>
      <Snippet></Snippet>
      <Point>
        <extrude>0</extrude>
        <altitudeMode>relativeToGround</altitudeMode>
        <coordinates> -87.814460,41.879731,0.000000</coordinates>
      </Point>
    </Placemark>
    <Placemark>
      <name>ST PAUL LUTHERAN SCHOOL</name>
      <styleUrl>#IconStyle00</styleUrl>
      <Snippet></Snippet>
      <Point>
        <extrude>0</extrude>
        <altitudeMode>relativeToGround</altitudeMode>
        <coordinates> -87.738147,41.721941,0.000000</coordinates>
      </Point>
    </Placemark>
    <Placemark>
      <name>CHRIST LUTHERAN LEARNING CENTER</name>
      <styleUrl>#IconStyle00</styleUrl>
      <Snippet></Snippet>
      <Point>
        <extrude>0</extrude>
        <altitudeMode>relativeToGround</altitudeMode>
        <coordinates> -87.789331,41.868883,0.000000</coordinates>
      </Point>
    </Placemark>
    <Placemark>
      <name>IMMANUEL LUTHERAN SCHOOL</name>
      <styleUrl>#IconStyle00</styleUrl>
      <Snippet></Snippet>
      <Point>
        <extrude>0</extrude>
        <altitudeMode>relativeToGround</altitudeMode>
        <coordinates> -88.043756,42.113636,0.000000</coordinates>
      </Point>
    </Placemark>
    <Placemark>
      <name>ST ANDREWS LUTHERAN SCHOOL</name>
      <styleUrl>#IconStyle00</styleUrl>
      <Snippet></Snippet>
      <Point>
        <extrude>0</extrude>
        <altitudeMode>relativeToGround</altitudeMode>
        <coordinates> -87.834651,42.014486,0.000000</coordinates>
      </Point>
    </Placemark>
    <Placemark>
      <name>GRACE LUTHERAN SCHOOL</name>
      <styleUrl>#IconStyle00</styleUrl>
      <Snippet></Snippet>
      <Point>
        <extrude>0</extrude>
        <altitudeMode>relativeToGround</altitudeMode>
        <coordinates> -87.807556,41.901518,0.000000</coordinates>
      </Point>
    </Placemark>
    <Placemark>
      <name>BETHLEHEM LUTHERAN SCHOOL</name>
      <styleUrl>#IconStyle00</styleUrl>
      <Snippet></Snippet>
      <Point>
        <extrude>0</extrude>
        <altitudeMode>relativeToGround</altitudeMode>
        <coordinates> -87.840666,41.928181,0.000000</coordinates>
      </Point>
    </Placemark>
    <Placemark>
      <name>ST PETER LUTHERAN SCHOOL</name>
      <styleUrl>#IconStyle00</styleUrl>
      <Snippet></Snippet>
      <Point>
        <extrude>0</extrude>
        <altitudeMode>relativeToGround</altitudeMode>
        <coordinates> -88.073621,42.027568,0.000000</coordinates>
      </Point>
    </Placemark>
    <Placemark>
      <name>ST PAUL LUTHERAN ACADEMY</name>
      <styleUrl>#IconStyle00</styleUrl>
      <Snippet></Snippet>
      <Point>
        <extrude>0</extrude>
        <altitudeMode>relativeToGround</altitudeMode>
        <coordinates> -87.757025,42.024830,0.000000</coordinates>
      </Point>
    </Placemark>
    <Placemark>
      <name>ST JOHN LUTHERAN</name>
      <styleUrl>#IconStyle00</styleUrl>
      <Snippet></Snippet>
      <Point>
        <extrude>0</extrude>
        <altitudeMode>relativeToGround</altitudeMode>
        <coordinates> -87.718446,41.557123,0.000000</coordinates>
      </Point>
    </Placemark>
    <Placemark>
      <name>TRINITY EV LUTHERAN</name>
      <styleUrl>#IconStyle00</styleUrl>
      <Snippet></Snippet>
      <Point>
        <extrude>0</extrude>
        <altitudeMode>relativeToGround</altitudeMode>
        <coordinates> -87.787848,41.602357,0.000000</coordinates>
      </Point>
    </Placemark>
    <Placemark>
      <name>LITTLE ANGELS</name>
      <styleUrl>#IconStyle00</styleUrl>
      <Snippet></Snippet>
      <Point>
        <extrude>0</extrude>
        <altitudeMode>relativeToGround</altitudeMode>
        <coordinates> -87.692215,41.974633,0.000000</coordinates>
      </Point>
    </Placemark>
    <Placemark>
      <name>BETHEL LUTHERAN</name>
      <styleUrl>#IconStyle00</styleUrl>
      <Snippet></Snippet>
      <Point>
        <extrude>0</extrude>
        <altitudeMode>relativeToGround</altitudeMode>
        <coordinates> -87.723989,41.906631,0.000000</coordinates>
      </Point>
    </Placemark>
    <Placemark>
      <name>BETHLEHEM LUTHERAN SCHOOL</name>
      <styleUrl>#IconStyle00</styleUrl>
      <Snippet></Snippet>
      <Point>
        <extrude>0</extrude>
        <altitudeMode>relativeToGround</altitudeMode>
        <coordinates> -87.533441,41.708218,0.000000</coordinates>
      </Point>
    </Placemark>
    <Placemark>
      <name>GRANDMA JONES DAY CARE</name>
      <styleUrl>#IconStyle00</styleUrl>
      <Snippet></Snippet>
      <Point>
        <extrude>0</extrude>
        <altitudeMode>relativeToGround</altitudeMode>
        <coordinates> -87.543619,41.622727,0.000000</coordinates>
      </Point>
    </Placemark>
    <Placemark>
      <name>HADI SCHOOL OF EXCELLENCE</name>
      <styleUrl>#IconStyle00</styleUrl>
      <Snippet></Snippet>
      <Point>
        <extrude>0</extrude>
        <altitudeMode>relativeToGround</altitudeMode>
        <coordinates> -88.082114,42.005232,0.000000</coordinates>
      </Point>
    </Placemark>
    <Placemark>
      <name>CHRISTIAN LIBERTY ACADEMY</name>
      <styleUrl>#IconStyle00</styleUrl>
      <Snippet></Snippet>
      <Point>
        <extrude>0</extrude>
        <altitudeMode>relativeToGround</altitudeMode>
        <coordinates> -87.989381,42.088318,0.000000</coordinates>
      </Point>
    </Placemark>
    <Placemark>
      <name>GLORIA DEI LUTHERAN</name>
      <styleUrl>#IconStyle00</styleUrl>
      <Snippet></Snippet>
      <Point>
        <extrude>0</extrude>
        <altitudeMode>relativeToGround</altitudeMode>
        <coordinates> -87.764853,41.796386,0.000000</coordinates>
      </Point>
    </Placemark>
    <Placemark>
      <name>GRACE LUTHERAN SCHOOL</name>
      <styleUrl>#IconStyle00</styleUrl>
      <Snippet></Snippet>
      <Point>
        <extrude>0</extrude>
        <altitudeMode>relativeToGround</altitudeMode>
        <coordinates> -87.727187,41.840531,0.000000</coordinates>
      </Point>
    </Placemark>
    <Placemark>
      <name>OUR LADY MONTESSORI</name>
      <styleUrl>#IconStyle00</styleUrl>
      <Snippet></Snippet>
      <Point>
        <extrude>0</extrude>
        <altitudeMode>relativeToGround</altitudeMode>
        <coordinates> -87.878795,41.903023,0.000000</coordinates>
      </Point>
    </Placemark>
    <Placemark>
      <name>ESLUP RAPID LEARNING CENTER</name>
      <styleUrl>#IconStyle00</styleUrl>
      <Snippet></Snippet>
      <Point>
        <extrude>0</extrude>
        <altitudeMode>relativeToGround</altitudeMode>
        <coordinates> -87.642952,41.782510,0.000000</coordinates>
      </Point>
    </Placemark>
    <Placemark>
      <name>JEHOVAH LUTHERAN SCHOOL</name>
      <styleUrl>#IconStyle00</styleUrl>
      <Snippet></Snippet>
      <Point>
        <extrude>0</extrude>
        <altitudeMode>relativeToGround</altitudeMode>
        <coordinates> -87.721385,41.922718,0.000000</coordinates>
      </Point>
    </Placemark>
    <Placemark>
      <name>MESSIAH LUTHERAN SCHOOL</name>
      <styleUrl>#IconStyle00</styleUrl>
      <Snippet></Snippet>
      <Point>
        <extrude>0</extrude>
        <altitudeMode>relativeToGround</altitudeMode>
        <coordinates> -87.781413,41.946629,0.000000</coordinates>
      </Point>
    </Placemark>
    <Placemark>
      <name>OUR SAVIOUR</name>
      <styleUrl>#IconStyle00</styleUrl>
      <Snippet></Snippet>
      <Point>
        <extrude>0</extrude>
        <altitudeMode>relativeToGround</altitudeMode>
        <coordinates> -87.806738,41.943450,0.000000</coordinates>
      </Point>
    </Placemark>
    <Placemark>
      <name>MOSAIC EARLY CHILDHOOD ACADEMY</name>
      <styleUrl>#IconStyle00</styleUrl>
      <Snippet></Snippet>
      <Point>
        <extrude>0</extrude>
        <altitudeMode>relativeToGround</altitudeMode>
        <coordinates> -87.760400,41.945958,0.000000</coordinates>
      </Point>
    </Placemark>
    <Placemark>
      <name>ST ANDREW LUTHERAN</name>
      <styleUrl>#IconStyle00</styleUrl>
      <Snippet></Snippet>
      <Point>
        <extrude>0</extrude>
        <altitudeMode>relativeToGround</altitudeMode>
        <coordinates> -87.671515,41.826788,0.000000</coordinates>
      </Point>
    </Placemark>
    <Placemark>
      <name>ST JAMES LUTHERAN</name>
      <styleUrl>#IconStyle00</styleUrl>
      <Snippet></Snippet>
      <Point>
        <extrude>0</extrude>
        <altitudeMode>relativeToGround</altitudeMode>
        <coordinates> -87.651006,41.920151,0.000000</coordinates>
      </Point>
    </Placemark>
    <Placemark>
      <name>ST JOHN EV LUTHERAN SCHOOL</name>
      <styleUrl>#IconStyle00</styleUrl>
      <Snippet></Snippet>
      <Point>
        <extrude>0</extrude>
        <altitudeMode>relativeToGround</altitudeMode>
        <coordinates> -87.752137,41.960665,0.000000</coordinates>
      </Point>
    </Placemark>
    <Placemark>
      <name>ST LUKE LUTHERAN SCHOOL</name>
      <styleUrl>#IconStyle00</styleUrl>
      <Snippet></Snippet>
      <Point>
        <extrude>0</extrude>
        <altitudeMode>relativeToGround</altitudeMode>
        <coordinates> -87.666432,41.939727,0.000000</coordinates>
      </Point>
    </Placemark>
    <Placemark>
      <name>MOSAIC EARLY CHILDHOOD CTR INC</name>
      <styleUrl>#IconStyle00</styleUrl>
      <Snippet></Snippet>
      <Point>
        <extrude>0</extrude>
        <altitudeMode>relativeToGround</altitudeMode>
        <coordinates> -87.728604,42.040765,0.000000</coordinates>
      </Point>
    </Placemark>
    <Placemark>
      <name>ST PAUL LUTHERAN SCHOOL</name>
      <styleUrl>#IconStyle00</styleUrl>
      <Snippet></Snippet>
      <Point>
        <extrude>0</extrude>
        <altitudeMode>relativeToGround</altitudeMode>
        <coordinates> -87.770306,41.896135,0.000000</coordinates>
      </Point>
    </Placemark>
    <Placemark>
      <name>ST PAUL LUTHERAN SCHOOL</name>
      <styleUrl>#IconStyle00</styleUrl>
      <Snippet></Snippet>
      <Point>
        <extrude>0</extrude>
        <altitudeMode>relativeToGround</altitudeMode>
        <coordinates> -87.590742,41.756366,0.000000</coordinates>
      </Point>
    </Placemark>
    <Placemark>
      <name>ST PAUL LUTHERAN</name>
      <styleUrl>#IconStyle00</styleUrl>
      <Snippet></Snippet>
      <Point>
        <extrude>0</extrude>
        <altitudeMode>relativeToGround</altitudeMode>
        <coordinates> -87.823590,41.982508,0.000000</coordinates>
      </Point>
    </Placemark>
    <Placemark>
      <name>ST PHILIP LUTHERAN</name>
      <styleUrl>#IconStyle00</styleUrl>
      <Snippet></Snippet>
      <Point>
        <extrude>0</extrude>
        <altitudeMode>relativeToGround</altitudeMode>
        <coordinates> -87.691879,41.983158,0.000000</coordinates>
      </Point>
    </Placemark>
    <Placemark>
      <name>TIMOTHY LUTHERAN SCHOOL</name>
      <styleUrl>#IconStyle00</styleUrl>
      <Snippet></Snippet>
      <Point>
        <extrude>0</extrude>
        <altitudeMode>relativeToGround</altitudeMode>
        <coordinates> -87.665685,41.743040,0.000000</coordinates>
      </Point>
    </Placemark>
    <Placemark>
      <name>ZION LUTHERAN SCHOOL</name>
      <styleUrl>#IconStyle00</styleUrl>
      <Snippet></Snippet>
      <Point>
        <extrude>0</extrude>
        <altitudeMode>relativeToGround</altitudeMode>
        <coordinates> -87.613472,41.696378,0.000000</coordinates>
      </Point>
    </Placemark>
    <Placemark>
      <name>BETHESDA LUTHERAN SCHOOL</name>
      <styleUrl>#IconStyle00</styleUrl>
      <Snippet></Snippet>
      <Point>
        <extrude>0</extrude>
        <altitudeMode>relativeToGround</altitudeMode>
        <coordinates> -87.692515,42.005378,0.000000</coordinates>
      </Point>
    </Placemark>
    <Placemark>
      <name>CHRIST ENGLISH LUTHERAN SCHOOL</name>
      <styleUrl>#IconStyle00</styleUrl>
      <Snippet></Snippet>
      <Point>
        <extrude>0</extrude>
        <altitudeMode>relativeToGround</altitudeMode>
        <coordinates> -87.759841,41.907639,0.000000</coordinates>
      </Point>
    </Placemark>
    <Placemark>
      <name>GRACE ENGLISH LUTHERAN SCHOOL</name>
      <styleUrl>#IconStyle00</styleUrl>
      <Snippet></Snippet>
      <Point>
        <extrude>0</extrude>
        <altitudeMode>relativeToGround</altitudeMode>
        <coordinates> -87.756376,41.930255,0.000000</coordinates>
      </Point>
    </Placemark>
    <Placemark>
      <name>HOPE LUTHERAN</name>
      <styleUrl>#IconStyle00</styleUrl>
      <Snippet></Snippet>
      <Point>
        <extrude>0</extrude>
        <altitudeMode>relativeToGround</altitudeMode>
        <coordinates> -87.690894,41.776748,0.000000</coordinates>
      </Point>
    </Placemark>
    <Placemark>
      <name>PILGRIM LUTHERAN SCHOOL</name>
      <styleUrl>#IconStyle00</styleUrl>
      <Snippet></Snippet>
      <Point>
        <extrude>0</extrude>
        <altitudeMode>relativeToGround</altitudeMode>
        <coordinates> -87.677440,41.959909,0.000000</coordinates>
      </Point>
    </Placemark>
    <Placemark>
      <name>MARKHAM LUTHERAN</name>
      <styleUrl>#IconStyle00</styleUrl>
      <Snippet></Snippet>
      <Point>
        <extrude>0</extrude>
        <altitudeMode>relativeToGround</altitudeMode>
        <coordinates> -87.703072,41.598947,0.000000</coordinates>
      </Point>
    </Placemark>
    <Placemark>
      <name>HOPE MONTESSORI INC</name>
      <styleUrl>#IconStyle00</styleUrl>
      <Snippet></Snippet>
      <Point>
        <extrude>0</extrude>
        <altitudeMode>relativeToGround</altitudeMode>
        <coordinates> -87.784572,41.582246,0.000000</coordinates>
      </Point>
    </Placemark>
    <Placemark>
      <name>SOUTHWEST CHICAGO CHRISTIAN SCH</name>
      <styleUrl>#IconStyle00</styleUrl>
      <Snippet></Snippet>
      <Point>
        <extrude>0</extrude>
        <altitudeMode>relativeToGround</altitudeMode>
        <coordinates> -87.759910,41.708664,0.000000</coordinates>
      </Point>
    </Placemark>
    <Placemark>
      <name>AKIBA-SCHECHTER DAY SCHOOL</name>
      <styleUrl>#IconStyle00</styleUrl>
      <Snippet></Snippet>
      <Point>
        <extrude>0</extrude>
        <altitudeMode>relativeToGround</altitudeMode>
        <coordinates> -87.585894,41.800638,0.000000</coordinates>
      </Point>
    </Placemark>
    <Placemark>
      <name>BERNARD ZELL ANSHE EMET DAY SCH</name>
      <styleUrl>#IconStyle00</styleUrl>
      <Snippet></Snippet>
      <Point>
        <extrude>0</extrude>
        <altitudeMode>relativeToGround</altitudeMode>
        <coordinates> -87.649204,41.950536,0.000000</coordinates>
      </Point>
    </Placemark>
    <Placemark>
      <name>ARIE CROWN HEBREW DAY SCHOOL</name>
      <styleUrl>#IconStyle00</styleUrl>
      <Snippet></Snippet>
      <Point>
        <extrude>0</extrude>
        <altitudeMode>relativeToGround</altitudeMode>
        <coordinates> -87.743699,42.033511,0.000000</coordinates>
      </Point>
    </Placemark>
    <Placemark>
      <name>CHILDRENS LRNING PATH MONTESSORI</name>
      <styleUrl>#IconStyle00</styleUrl>
      <Snippet></Snippet>
      <Point>
        <extrude>0</extrude>
        <altitudeMode>relativeToGround</altitudeMode>
        <coordinates> -87.848558,42.131637,0.000000</coordinates>
      </Point>
    </Placemark>
    <Placemark>
      <name>CALVIN CHRISTIAN SCHOOL</name>
      <styleUrl>#IconStyle00</styleUrl>
      <Snippet></Snippet>
      <Point>
        <extrude>0</extrude>
        <altitudeMode>relativeToGround</altitudeMode>
        <coordinates> -87.603481,41.601742,0.000000</coordinates>
      </Point>
    </Placemark>
    <Placemark>
      <name>CHICAGO CHRISTIAN ACADEMY</name>
      <styleUrl>#IconStyle00</styleUrl>
      <Snippet></Snippet>
      <Point>
        <extrude>0</extrude>
        <altitudeMode>relativeToGround</altitudeMode>
        <coordinates> -87.754376,41.931428,0.000000</coordinates>
      </Point>
    </Placemark>
    <Placemark>
      <name>LANSING CHRISTIAN SCHOOL</name>
      <styleUrl>#IconStyle00</styleUrl>
      <Snippet></Snippet>
      <Point>
        <extrude>0</extrude>
        <altitudeMode>relativeToGround</altitudeMode>
        <coordinates> -87.527142,41.566289,0.000000</coordinates>
      </Point>
    </Placemark>
    <Placemark>
      <name>MIDWESTERN CHRISTIAN ACADEMY</name>
      <styleUrl>#IconStyle00</styleUrl>
      <Snippet></Snippet>
      <Point>
        <extrude>0</extrude>
        <altitudeMode>relativeToGround</altitudeMode>
        <coordinates> -87.747025,41.944665,0.000000</coordinates>
      </Point>
    </Placemark>
    <Placemark>
      <name>HILLEL TORAH N SUBURDAN DAY SCH</name>
      <styleUrl>#IconStyle00</styleUrl>
      <Snippet></Snippet>
      <Point>
        <extrude>0</extrude>
        <altitudeMode>relativeToGround</altitudeMode>
        <coordinates> -87.757686,42.010929,0.000000</coordinates>
      </Point>
    </Placemark>
    <Placemark>
      <name>NORTHWEST SUBURBAN MONTESSORI SCH</name>
      <styleUrl>#IconStyle00</styleUrl>
      <Snippet></Snippet>
      <Point>
        <extrude>0</extrude>
        <altitudeMode>relativeToGround</altitudeMode>
        <coordinates> -87.991410,42.091768,0.000000</coordinates>
      </Point>
    </Placemark>
    <Placemark>
      <name>PLATO ACADEMY</name>
      <styleUrl>#IconStyle00</styleUrl>
      <Snippet></Snippet>
      <Point>
        <extrude>0</extrude>
        <altitudeMode>relativeToGround</altitudeMode>
        <coordinates> -87.781318,42.036855,0.000000</coordinates>
      </Point>
    </Placemark>
    <Placemark>
      <name>PROTESTANT REFORMED CHRISTIAN</name>
      <styleUrl>#IconStyle00</styleUrl>
      <Snippet></Snippet>
      <Point>
        <extrude>0</extrude>
        <altitudeMode>relativeToGround</altitudeMode>
        <coordinates> -87.607325,41.595114,0.000000</coordinates>
      </Point>
    </Placemark>
    <Placemark>
      <name>COMM YOUTH DEVELOPMENT INSTITUTE</name>
      <styleUrl>#IconStyle00</styleUrl>
      <Snippet></Snippet>
      <Point>
        <extrude>0</extrude>
        <altitudeMode>relativeToGround</altitudeMode>
        <coordinates> -87.641621,41.751373,0.000000</coordinates>
      </Point>
    </Placemark>
    <Placemark>
      <name>MORNINGSIDE MONTESSORI ACADEMY</name>
      <styleUrl>#IconStyle00</styleUrl>
      <Snippet></Snippet>
      <Point>
        <extrude>0</extrude>
        <altitudeMode>relativeToGround</altitudeMode>
        <coordinates> -87.782738,41.865615,0.000000</coordinates>
      </Point>
    </Placemark>
    <Placemark>
      <name>ROSELAND CHRISTIAN SCHOOL</name>
      <styleUrl>#IconStyle00</styleUrl>
      <Snippet></Snippet>
      <Point>
        <extrude>0</extrude>
        <altitudeMode>relativeToGround</altitudeMode>
        <coordinates> -87.630963,41.697959,0.000000</coordinates>
      </Point>
    </Placemark>
    <Placemark>
      <name>LHTBM SCHOOL OF THE SAINTS</name>
      <styleUrl>#IconStyle00</styleUrl>
      <Snippet></Snippet>
      <Point>
        <extrude>0</extrude>
        <altitudeMode>relativeToGround</altitudeMode>
        <coordinates> -87.781809,41.957112,0.000000</coordinates>
      </Point>
    </Placemark>
    <Placemark>
      <name>ST COLUMBANUS SCHOOL</name>
      <styleUrl>#IconStyle00</styleUrl>
      <Snippet></Snippet>
      <Point>
        <extrude>0</extrude>
        <altitudeMode>relativeToGround</altitudeMode>
        <coordinates> -87.616841,41.764481,0.000000</coordinates>
      </Point>
    </Placemark>
    <Placemark>
      <name>SAGER SOLOMON SCHECHTER DAY SCH</name>
      <styleUrl>#IconStyle00</styleUrl>
      <Snippet></Snippet>
      <Point>
        <extrude>0</extrude>
        <altitudeMode>relativeToGround</altitudeMode>
        <coordinates> -87.859166,42.138348,0.000000</coordinates>
      </Point>
    </Placemark>
    <Placemark>
      <name>JOAN DACHS BAIS YAAKOV ELEM</name>
      <styleUrl>#IconStyle00</styleUrl>
      <Snippet></Snippet>
      <Point>
        <extrude>0</extrude>
        <altitudeMode>relativeToGround</altitudeMode>
        <coordinates> -87.699468,41.992494,0.000000</coordinates>
      </Point>
    </Placemark>
    <Placemark>
      <name>CHILDRENS LAND</name>
      <styleUrl>#IconStyle00</styleUrl>
      <Snippet></Snippet>
      <Point>
        <extrude>0</extrude>
        <altitudeMode>relativeToGround</altitudeMode>
        <coordinates> -87.798076,42.087942,0.000000</coordinates>
      </Point>
    </Placemark>
    <Placemark>
      <name>NORTH SHORE SCHOOL</name>
      <styleUrl>#IconStyle00</styleUrl>
      <Snippet></Snippet>
      <Point>
        <extrude>0</extrude>
        <altitudeMode>relativeToGround</altitudeMode>
        <coordinates> -87.662922,42.013966,0.000000</coordinates>
      </Point>
    </Placemark>
    <Placemark>
      <name>ORCHARD HILL FARM ELEMENTARY SCH</name>
      <styleUrl>#IconStyle00</styleUrl>
      <Snippet></Snippet>
      <Point>
        <extrude>0</extrude>
        <altitudeMode>relativeToGround</altitudeMode>
        <coordinates> -87.733225,41.586543,0.000000</coordinates>
      </Point>
    </Placemark>
    <Placemark>
      <name>PATHWAYS TO LEARNING ACADEMY</name>
      <styleUrl>#IconStyle00</styleUrl>
      <Snippet></Snippet>
      <Point>
        <extrude>0</extrude>
        <altitudeMode>relativeToGround</altitudeMode>
        <coordinates> -87.647827,41.611294,0.000000</coordinates>
      </Point>
    </Placemark>
    <Placemark>
      <name>NORTH PARK ELEMENTARY SCHOOL</name>
      <styleUrl>#IconStyle00</styleUrl>
      <Snippet></Snippet>
      <Point>
        <extrude>0</extrude>
        <altitudeMode>relativeToGround</altitudeMode>
        <coordinates> -87.679610,41.961450,0.000000</coordinates>
      </Point>
    </Placemark>
    <Placemark>
      <name>CALVARY ACADEMY</name>
      <styleUrl>#IconStyle00</styleUrl>
      <Snippet></Snippet>
      <Point>
        <extrude>0</extrude>
        <altitudeMode>relativeToGround</altitudeMode>
        <coordinates> -87.617024,41.598535,0.000000</coordinates>
      </Point>
    </Placemark>
    <Placemark>
      <name>CHILDRENS LEARNING WORLD</name>
      <styleUrl>#IconStyle00</styleUrl>
      <Snippet></Snippet>
      <Point>
        <extrude>0</extrude>
        <altitudeMode>relativeToGround</altitudeMode>
        <coordinates> -87.829804,42.054780,0.000000</coordinates>
      </Point>
    </Placemark>
    <Placemark>
      <name>C A L A - WEST</name>
      <styleUrl>#IconStyle00</styleUrl>
      <Snippet></Snippet>
      <Point>
        <extrude>0</extrude>
        <altitudeMode>relativeToGround</altitudeMode>
        <coordinates> -87.722074,41.897230,0.000000</coordinates>
      </Point>
    </Placemark>
    <Placemark>
      <name>C A L A - NORTH</name>
      <styleUrl>#IconStyle00</styleUrl>
      <Snippet></Snippet>
      <Point>
        <extrude>0</extrude>
        <altitudeMode>relativeToGround</altitudeMode>
        <coordinates> -87.655393,41.990302,0.000000</coordinates>
      </Point>
    </Placemark>
    <Placemark>
      <name>BNOS RABBEINU HIGH SCHOOL</name>
      <styleUrl>#IconStyle00</styleUrl>
      <Snippet></Snippet>
      <Point>
        <extrude>0</extrude>
        <altitudeMode>relativeToGround</altitudeMode>
        <coordinates> -87.720316,41.997278,0.000000</coordinates>
      </Point>
    </Placemark>
    <Placemark>
      <name>HOPE OF GLORY CHRISTIAN ACADEMY</name>
      <styleUrl>#IconStyle00</styleUrl>
      <Snippet></Snippet>
      <Point>
        <extrude>0</extrude>
        <altitudeMode>relativeToGround</altitudeMode>
        <coordinates> -87.540021,41.622732,0.000000</coordinates>
      </Point>
    </Placemark>
    <Placemark>
      <name>FELLOWSHIP CHRISTIAN ACADEMY</name>
      <styleUrl>#IconStyle00</styleUrl>
      <Snippet></Snippet>
      <Point>
        <extrude>0</extrude>
        <altitudeMode>relativeToGround</altitudeMode>
        <coordinates> -87.576667,41.722452,0.000000</coordinates>
      </Point>
    </Placemark>
    <Placemark>
      <name>JULES HUTTON CHRISTIAN INSTITUTE</name>
      <styleUrl>#IconStyle00</styleUrl>
      <Snippet></Snippet>
      <Point>
        <extrude>0</extrude>
        <altitudeMode>relativeToGround</altitudeMode>
        <coordinates> -87.657160,41.612688,0.000000</coordinates>
      </Point>
    </Placemark>
    <Placemark>
      <name>BEACON HILL PREPATORY</name>
      <styleUrl>#IconStyle00</styleUrl>
      <Snippet></Snippet>
      <Point>
        <extrude>0</extrude>
        <altitudeMode>relativeToGround</altitudeMode>
        <coordinates> -87.537186,41.619987,0.000000</coordinates>
      </Point>
    </Placemark>
    <Placemark>
      <name>MONTESSORI LEARNING CENTER INC</name>
      <styleUrl>#IconStyle00</styleUrl>
      <Snippet></Snippet>
      <Point>
        <extrude>0</extrude>
        <altitudeMode>relativeToGround</altitudeMode>
        <coordinates> -88.105281,42.048170,0.000000</coordinates>
      </Point>
    </Placemark>
    <Placemark>
      <name>SULLIVAN HOUSE H S</name>
      <styleUrl>#IconStyle00</styleUrl>
      <Snippet></Snippet>
      <Point>
        <extrude>0</extrude>
        <altitudeMode>relativeToGround</altitudeMode>
        <coordinates> -87.578438,41.746362,0.000000</coordinates>
      </Point>
    </Placemark>
    <Placemark>
      <name>OUR LADY OF THE MOUNT</name>
      <styleUrl>#IconStyle00</styleUrl>
      <Snippet></Snippet>
      <Point>
        <extrude>0</extrude>
        <altitudeMode>relativeToGround</altitudeMode>
        <coordinates> -87.776082,41.847161,0.000000</coordinates>
      </Point>
    </Placemark>
    <Placemark>
      <name>OUR LADY OF CHARITY</name>
      <styleUrl>#IconStyle00</styleUrl>
      <Snippet></Snippet>
      <Point>
        <extrude>0</extrude>
        <altitudeMode>relativeToGround</altitudeMode>
        <coordinates> -87.766918,41.826815,0.000000</coordinates>
      </Point>
    </Placemark>
    <Placemark>
      <name>ST MARY OF CZESTOCHOWA</name>
      <styleUrl>#IconStyle00</styleUrl>
      <Snippet></Snippet>
      <Point>
        <extrude>0</extrude>
        <altitudeMode>relativeToGround</altitudeMode>
        <coordinates> -87.747102,41.838443,0.000000</coordinates>
      </Point>
    </Placemark>
    <Placemark>
      <name>ST FRANCES OF ROME</name>
      <styleUrl>#IconStyle00</styleUrl>
      <Snippet></Snippet>
      <Point>
        <extrude>0</extrude>
        <altitudeMode>relativeToGround</altitudeMode>
        <coordinates> -87.774029,41.861804,0.000000</coordinates>
      </Point>
    </Placemark>
    <Placemark>
      <name>YOUTHWATCH ED SERVICES</name>
      <styleUrl>#IconStyle00</styleUrl>
      <Snippet></Snippet>
      <Point>
        <extrude>0</extrude>
        <altitudeMode>relativeToGround</altitudeMode>
        <coordinates> -87.663208,41.609718,0.000000</coordinates>
      </Point>
    </Placemark>
    <Placemark>
      <name>OUR LADY OF THE RIDGE</name>
      <styleUrl>#IconStyle00</styleUrl>
      <Snippet></Snippet>
      <Point>
        <extrude>0</extrude>
        <altitudeMode>relativeToGround</altitudeMode>
        <coordinates> -87.778994,41.694862,0.000000</coordinates>
      </Point>
    </Placemark>
    <Placemark>
      <name>SAUGANASH MONTESSORI SCH</name>
      <styleUrl>#IconStyle00</styleUrl>
      <Snippet></Snippet>
      <Point>
        <extrude>0</extrude>
        <altitudeMode>relativeToGround</altitudeMode>
        <coordinates> -87.740669,41.985278,0.000000</coordinates>
      </Point>
    </Placemark>
    <Placemark>
      <name>LUTHERAN DAY NURSERY</name>
      <styleUrl>#IconStyle00</styleUrl>
      <Snippet></Snippet>
      <Point>
        <extrude>0</extrude>
        <altitudeMode>relativeToGround</altitudeMode>
        <coordinates> -87.695877,41.914155,0.000000</coordinates>
      </Point>
    </Placemark>
    <Placemark>
      <name>ACADEMY SACRED HEART/HARDEY PREP</name>
      <styleUrl>#IconStyle00</styleUrl>
      <Snippet></Snippet>
      <Point>
        <extrude>0</extrude>
        <altitudeMode>relativeToGround</altitudeMode>
        <coordinates> -87.655533,41.994855,0.000000</coordinates>
      </Point>
    </Placemark>
    <Placemark>
      <name>ALPHA OMEGA MINISTRIES</name>
      <styleUrl>#IconStyle00</styleUrl>
      <Snippet></Snippet>
      <Point>
        <extrude>0</extrude>
        <altitudeMode>relativeToGround</altitudeMode>
        <coordinates> -87.766920,41.903611,0.000000</coordinates>
      </Point>
    </Placemark>
    <Placemark>
      <name>SCIENCE ACADEMY OF CHICAGO</name>
      <styleUrl>#IconStyle00</styleUrl>
      <Snippet></Snippet>
      <Point>
        <extrude>0</extrude>
        <altitudeMode>relativeToGround</altitudeMode>
        <coordinates> -87.778281,41.927671,0.000000</coordinates>
      </Point>
    </Placemark>
    <Placemark>
      <name>ST FAITH HOPE &#38; CHARITY</name>
      <styleUrl>#IconStyle00</styleUrl>
      <Snippet></Snippet>
      <Point>
        <extrude>0</extrude>
        <altitudeMode>relativeToGround</altitudeMode>
        <coordinates> -87.732080,42.096385,0.000000</coordinates>
      </Point>
    </Placemark>
    <Placemark>
      <name>ST JOSEPH</name>
      <styleUrl>#IconStyle00</styleUrl>
      <Snippet></Snippet>
      <Point>
        <extrude>0</extrude>
        <altitudeMode>relativeToGround</altitudeMode>
        <coordinates> -87.721116,42.079043,0.000000</coordinates>
      </Point>
    </Placemark>
    <Placemark>
      <name>ST FRANCIS XAVIER</name>
      <styleUrl>#IconStyle00</styleUrl>
      <Snippet></Snippet>
      <Point>
        <extrude>0</extrude>
        <altitudeMode>relativeToGround</altitudeMode>
        <coordinates> -87.700416,42.073867,0.000000</coordinates>
      </Point>
    </Placemark>
    <Placemark>
      <name>ST JOHN OF THE CROSS</name>
      <styleUrl>#IconStyle00</styleUrl>
      <Snippet></Snippet>
      <Point>
        <extrude>0</extrude>
        <altitudeMode>relativeToGround</altitudeMode>
        <coordinates> -87.897134,41.797156,0.000000</coordinates>
      </Point>
    </Placemark>
    <Placemark>
      <name>DIVINE PROVIDENCE</name>
      <styleUrl>#IconStyle00</styleUrl>
      <Snippet></Snippet>
      <Point>
        <extrude>0</extrude>
        <altitudeMode>relativeToGround</altitudeMode>
        <coordinates> -87.891258,41.841661,0.000000</coordinates>
      </Point>
    </Placemark>
    <Placemark>
      <name>DIVINE INFANT JESUS SCHOOL</name>
      <styleUrl>#IconStyle00</styleUrl>
      <Snippet></Snippet>
      <Point>
        <extrude>0</extrude>
        <altitudeMode>relativeToGround</altitudeMode>
        <coordinates> -87.874740,41.855784,0.000000</coordinates>
      </Point>
    </Placemark>
    <Placemark>
      <name>ST LEONARD SCHOOL</name>
      <styleUrl>#IconStyle00</styleUrl>
      <Snippet></Snippet>
      <Point>
        <extrude>0</extrude>
        <altitudeMode>relativeToGround</altitudeMode>
        <coordinates> -87.789119,41.831936,0.000000</coordinates>
      </Point>
    </Placemark>
    <Placemark>
      <name>ST MARY OF CELLE</name>
      <styleUrl>#IconStyle00</styleUrl>
      <Snippet></Snippet>
      <Point>
        <extrude>0</extrude>
        <altitudeMode>relativeToGround</altitudeMode>
        <coordinates> -87.791170,41.860660,0.000000</coordinates>
      </Point>
    </Placemark>
    <Placemark>
      <name>ST ODILO SCHOOL</name>
      <styleUrl>#IconStyle00</styleUrl>
      <Snippet></Snippet>
      <Point>
        <extrude>0</extrude>
        <altitudeMode>relativeToGround</altitudeMode>
        <coordinates> -87.789495,41.848792,0.000000</coordinates>
      </Point>
    </Placemark>
    <Placemark>
      <name>ST BENEDICT</name>
      <styleUrl>#IconStyle00</styleUrl>
      <Snippet></Snippet>
      <Point>
        <extrude>0</extrude>
        <altitudeMode>relativeToGround</altitudeMode>
        <coordinates> -87.678368,41.656377,0.000000</coordinates>
      </Point>
    </Placemark>
    <Placemark>
      <name>BAKER DEMONSTRATION SCHOOL</name>
      <styleUrl>#IconStyle00</styleUrl>
      <Snippet></Snippet>
      <Point>
        <extrude>0</extrude>
        <altitudeMode>relativeToGround</altitudeMode>
        <coordinates> -87.682881,42.068848,0.000000</coordinates>
      </Point>
    </Placemark>
    <Placemark>
      <name>ST BARBARA</name>
      <styleUrl>#IconStyle00</styleUrl>
      <Snippet></Snippet>
      <Point>
        <extrude>0</extrude>
        <altitudeMode>relativeToGround</altitudeMode>
        <coordinates> -87.843854,41.818633,0.000000</coordinates>
      </Point>
    </Placemark>
    <Placemark>
      <name>ST GEORGE SCHOOL</name>
      <styleUrl>#IconStyle00</styleUrl>
      <Snippet></Snippet>
      <Point>
        <extrude>0</extrude>
        <altitudeMode>relativeToGround</altitudeMode>
        <coordinates> -87.782653,41.571433,0.000000</coordinates>
      </Point>
    </Placemark>
    <Placemark>
      <name>ST JOSEPH</name>
      <styleUrl>#IconStyle00</styleUrl>
      <Snippet></Snippet>
      <Point>
        <extrude>0</extrude>
        <altitudeMode>relativeToGround</altitudeMode>
        <coordinates> -87.803829,41.788979,0.000000</coordinates>
      </Point>
    </Placemark>
    <Placemark>
      <name>ST PETER SCHOOL</name>
      <styleUrl>#IconStyle00</styleUrl>
      <Snippet></Snippet>
      <Point>
        <extrude>0</extrude>
        <altitudeMode>relativeToGround</altitudeMode>
        <coordinates> -87.754128,42.028558,0.000000</coordinates>
      </Point>
    </Placemark>
    <Placemark>
      <name>ST JOAN OF ARC SCHOOL-SKOKIE</name>
      <styleUrl>#IconStyle00</styleUrl>
      <Snippet></Snippet>
      <Point>
        <extrude>0</extrude>
        <altitudeMode>relativeToGround</altitudeMode>
        <coordinates> -87.720364,42.049091,0.000000</coordinates>
      </Point>
    </Placemark>
    <Placemark>
      <name>ST MARIA GORETTI SCHOOL</name>
      <styleUrl>#IconStyle00</styleUrl>
      <Snippet></Snippet>
      <Point>
        <extrude>0</extrude>
        <altitudeMode>relativeToGround</altitudeMode>
        <coordinates> -87.876920,41.947448,0.000000</coordinates>
      </Point>
    </Placemark>
    <Placemark>
      <name>ST BEATRICE SCHOOL</name>
      <styleUrl>#IconStyle00</styleUrl>
      <Snippet></Snippet>
      <Point>
        <extrude>0</extrude>
        <altitudeMode>relativeToGround</altitudeMode>
        <coordinates> -87.869818,41.954586,0.000000</coordinates>
      </Point>
    </Placemark>
    <Placemark>
      <name>ACAD OF ST BENEDICT THE AFRICAN</name>
      <styleUrl>#IconStyle00</styleUrl>
      <Snippet></Snippet>
      <Point>
        <extrude>0</extrude>
        <altitudeMode>relativeToGround</altitudeMode>
        <coordinates> -87.634922,41.775112,0.000000</coordinates>
      </Point>
    </Placemark>
    <Placemark>
      <name>ST COLETTE SCHOOL</name>
      <styleUrl>#IconStyle00</styleUrl>
      <Snippet></Snippet>
      <Point>
        <extrude>0</extrude>
        <altitudeMode>relativeToGround</altitudeMode>
        <coordinates> -88.016939,42.070218,0.000000</coordinates>
      </Point>
    </Placemark>
    <Placemark>
      <name>ST MARY SCHOOL</name>
      <styleUrl>#IconStyle00</styleUrl>
      <Snippet></Snippet>
      <Point>
        <extrude>0</extrude>
        <altitudeMode>relativeToGround</altitudeMode>
        <coordinates> -87.816853,41.830161,0.000000</coordinates>
      </Point>
    </Placemark>
    <Placemark>
      <name>ST CYPRIAN</name>
      <styleUrl>#IconStyle00</styleUrl>
      <Snippet></Snippet>
      <Point>
        <extrude>0</extrude>
        <altitudeMode>relativeToGround</altitudeMode>
        <coordinates> -87.830793,41.926641,0.000000</coordinates>
      </Point>
    </Placemark>
    <Placemark>
      <name>ST VINCENT FERRER</name>
      <styleUrl>#IconStyle00</styleUrl>
      <Snippet></Snippet>
      <Point>
        <extrude>0</extrude>
        <altitudeMode>relativeToGround</altitudeMode>
        <coordinates> -87.815520,41.908449,0.000000</coordinates>
      </Point>
    </Placemark>
    <Placemark>
      <name>ST LUKE CATHOLIC SCHOOL</name>
      <styleUrl>#IconStyle00</styleUrl>
      <Snippet></Snippet>
      <Point>
        <extrude>0</extrude>
        <altitudeMode>relativeToGround</altitudeMode>
        <coordinates> -87.816192,41.888966,0.000000</coordinates>
      </Point>
    </Placemark>
    <Placemark>
      <name>ST ALPHONSUS LIGUORI</name>
      <styleUrl>#IconStyle00</styleUrl>
      <Snippet></Snippet>
      <Point>
        <extrude>0</extrude>
        <altitudeMode>relativeToGround</altitudeMode>
        <coordinates> -87.927084,42.103668,0.000000</coordinates>
      </Point>
    </Placemark>
    <Placemark>
      <name>ST STANISLAUS</name>
      <styleUrl>#IconStyle00</styleUrl>
      <Snippet></Snippet>
      <Point>
        <extrude>0</extrude>
        <altitudeMode>relativeToGround</altitudeMode>
        <coordinates> -87.682692,41.630492,0.000000</coordinates>
      </Point>
    </Placemark>
    <Placemark>
      <name>ST PAUL OF THE CROSS SCHOOL</name>
      <styleUrl>#IconStyle00</styleUrl>
      <Snippet></Snippet>
      <Point>
        <extrude>0</extrude>
        <altitudeMode>relativeToGround</altitudeMode>
        <coordinates> -87.826268,42.009193,0.000000</coordinates>
      </Point>
    </Placemark>
    <Placemark>
      <name>MARY SEAT OF WISDOM</name>
      <styleUrl>#IconStyle00</styleUrl>
      <Snippet></Snippet>
      <Point>
        <extrude>0</extrude>
        <altitudeMode>relativeToGround</altitudeMode>
        <coordinates> -87.836530,41.993101,0.000000</coordinates>
      </Point>
    </Placemark>
    <Placemark>
      <name>ST MARK ACADEMY</name>
      <styleUrl>#IconStyle00</styleUrl>
      <Snippet></Snippet>
      <Point>
        <extrude>0</extrude>
        <altitudeMode>relativeToGround</altitudeMode>
        <coordinates> -87.663282,41.624045,0.000000</coordinates>
      </Point>
    </Placemark>
    <Placemark>
      <name>ST WILLIAM SCHOOL</name>
      <styleUrl>#IconStyle00</styleUrl>
      <Snippet></Snippet>
      <Point>
        <extrude>0</extrude>
        <altitudeMode>relativeToGround</altitudeMode>
        <coordinates> -87.800835,41.926704,0.000000</coordinates>
      </Point>
    </Placemark>
    <Placemark>
      <name>ST WALTER SCHOOL</name>
      <styleUrl>#IconStyle00</styleUrl>
      <Snippet></Snippet>
      <Point>
        <extrude>0</extrude>
        <altitudeMode>relativeToGround</altitudeMode>
        <coordinates> -87.680775,41.679676,0.000000</coordinates>
      </Point>
    </Placemark>
    <Placemark>
      <name>COVENANT CHRTN ACAD OF CHICAGO</name>
      <styleUrl>#IconStyle00</styleUrl>
      <Snippet></Snippet>
      <Point>
        <extrude>0</extrude>
        <altitudeMode>relativeToGround</altitudeMode>
        <coordinates> -87.657930,41.713907,0.000000</coordinates>
      </Point>
    </Placemark>
    <Placemark>
      <name>VISITATION CATHOLIC SCHOOL</name>
      <styleUrl>#IconStyle00</styleUrl>
      <Snippet></Snippet>
      <Point>
        <extrude>0</extrude>
        <altitudeMode>relativeToGround</altitudeMode>
        <coordinates> -87.647602,41.794279,0.000000</coordinates>
      </Point>
    </Placemark>
    <Placemark>
      <name>CHICAGOLAND JEWISH HIGH SCHOOL</name>
      <styleUrl>#IconStyle00</styleUrl>
      <Snippet></Snippet>
      <Point>
        <extrude>0</extrude>
        <altitudeMode>relativeToGround</altitudeMode>
        <coordinates> -87.822322,42.049498,0.000000</coordinates>
      </Point>
    </Placemark>
    <Placemark>
      <name>ST VIATOR SCHOOL</name>
      <styleUrl>#IconStyle00</styleUrl>
      <Snippet></Snippet>
      <Point>
        <extrude>0</extrude>
        <altitudeMode>relativeToGround</altitudeMode>
        <coordinates> -87.731196,41.946324,0.000000</coordinates>
      </Point>
    </Placemark>
    <Placemark>
      <name>HUNTER-BOLDEN ACADEMY</name>
      <styleUrl>#IconStyle00</styleUrl>
      <Snippet></Snippet>
      <Point>
        <extrude>0</extrude>
        <altitudeMode>relativeToGround</altitudeMode>
        <coordinates> -87.617679,41.891369,0.000000</coordinates>
      </Point>
    </Placemark>
    <Placemark>
      <name>ST BARBARA</name>
      <styleUrl>#IconStyle00</styleUrl>
      <Snippet></Snippet>
      <Point>
        <extrude>0</extrude>
        <altitudeMode>relativeToGround</altitudeMode>
        <coordinates> -87.653168,41.842374,0.000000</coordinates>
      </Point>
    </Placemark>
    <Placemark>
      <name>ST BARNABAS SCHOOL</name>
      <styleUrl>#IconStyle00</styleUrl>
      <Snippet></Snippet>
      <Point>
        <extrude>0</extrude>
        <altitudeMode>relativeToGround</altitudeMode>
        <coordinates> -87.669711,41.709653,0.000000</coordinates>
      </Point>
    </Placemark>
    <Placemark>
      <name>ST BARTHOLOMEW SCHOOL</name>
      <styleUrl>#IconStyle00</styleUrl>
      <Snippet></Snippet>
      <Point>
        <extrude>0</extrude>
        <altitudeMode>relativeToGround</altitudeMode>
        <coordinates> -87.751307,41.946987,0.000000</coordinates>
      </Point>
    </Placemark>
    <Placemark>
      <name>ST BEDE THE VENERABLE</name>
      <styleUrl>#IconStyle00</styleUrl>
      <Snippet></Snippet>
      <Point>
        <extrude>0</extrude>
        <altitudeMode>relativeToGround</altitudeMode>
        <coordinates> -87.731627,41.742005,0.000000</coordinates>
      </Point>
    </Placemark>
    <Placemark>
      <name>ST BENEDICT ELEM SCHOOL</name>
      <styleUrl>#IconStyle00</styleUrl>
      <Snippet></Snippet>
      <Point>
        <extrude>0</extrude>
        <altitudeMode>relativeToGround</altitudeMode>
        <coordinates> -87.683576,41.952891,0.000000</coordinates>
      </Point>
    </Placemark>
    <Placemark>
      <name>ST AGNES OF BOHEMIA</name>
      <styleUrl>#IconStyle00</styleUrl>
      <Snippet></Snippet>
      <Point>
        <extrude>0</extrude>
        <altitudeMode>relativeToGround</altitudeMode>
        <coordinates> -87.714750,41.843075,0.000000</coordinates>
      </Point>
    </Placemark>
    <Placemark>
      <name>CHICAGO CHRISTIAN MONTESSORI ACAD</name>
      <styleUrl>#IconStyle00</styleUrl>
      <Snippet></Snippet>
      <Point>
        <extrude>0</extrude>
        <altitudeMode>relativeToGround</altitudeMode>
        <coordinates> -87.728478,41.984475,0.000000</coordinates>
      </Point>
    </Placemark>
    <Placemark>
      <name>C Y C L E</name>
      <styleUrl>#IconStyle00</styleUrl>
      <Snippet></Snippet>
      <Point>
        <extrude>0</extrude>
        <altitudeMode>relativeToGround</altitudeMode>
        <coordinates> -87.647297,41.903650,0.000000</coordinates>
      </Point>
    </Placemark>
    <Placemark>
      <name>ST BRIDE SCHOOL</name>
      <styleUrl>#IconStyle00</styleUrl>
      <Snippet></Snippet>
      <Point>
        <extrude>0</extrude>
        <altitudeMode>relativeToGround</altitudeMode>
        <coordinates> -87.553333,41.754871,0.000000</coordinates>
      </Point>
    </Placemark>
    <Placemark>
      <name>CHRISTIAN HILLS CHURCH SCHOOL</name>
      <styleUrl>#IconStyle00</styleUrl>
      <Snippet></Snippet>
      <Point>
        <extrude>0</extrude>
        <altitudeMode>relativeToGround</altitudeMode>
        <coordinates> -87.838831,41.601605,0.000000</coordinates>
      </Point>
    </Placemark>
    <Placemark>
      <name>ST BRUNO SCHOOL</name>
      <styleUrl>#IconStyle00</styleUrl>
      <Snippet></Snippet>
      <Point>
        <extrude>0</extrude>
        <altitudeMode>relativeToGround</altitudeMode>
        <coordinates> -87.722271,41.804856,0.000000</coordinates>
      </Point>
    </Placemark>
    <Placemark>
      <name>ST CAJETAN</name>
      <styleUrl>#IconStyle00</styleUrl>
      <Snippet></Snippet>
      <Point>
        <extrude>0</extrude>
        <altitudeMode>relativeToGround</altitudeMode>
        <coordinates> -87.682998,41.689794,0.000000</coordinates>
      </Point>
    </Placemark>
    <Placemark>
      <name>ST CAMILLUS SCHOOL</name>
      <styleUrl>#IconStyle00</styleUrl>
      <Snippet></Snippet>
      <Point>
        <extrude>0</extrude>
        <altitudeMode>relativeToGround</altitudeMode>
        <coordinates> -87.754997,41.793613,0.000000</coordinates>
      </Point>
    </Placemark>
    <Placemark>
      <name>MARION H BLAKELY CHRISTIAN ACAD</name>
      <styleUrl>#IconStyle00</styleUrl>
      <Snippet></Snippet>
      <Point>
        <extrude>0</extrude>
        <altitudeMode>relativeToGround</altitudeMode>
        <coordinates> -87.639046,41.634368,0.000000</coordinates>
      </Point>
    </Placemark>
    <Placemark>
      <name>OUR LADY OF TEPEYAC</name>
      <styleUrl>#IconStyle00</styleUrl>
      <Snippet></Snippet>
      <Point>
        <extrude>0</extrude>
        <altitudeMode>relativeToGround</altitudeMode>
        <coordinates> -87.702766,41.850523,0.000000</coordinates>
      </Point>
    </Placemark>
    <Placemark>
      <name>RIDGE ACADEMY</name>
      <styleUrl>#IconStyle00</styleUrl>
      <Snippet></Snippet>
      <Point>
        <extrude>0</extrude>
        <altitudeMode>relativeToGround</altitudeMode>
        <coordinates> -87.684122,41.706389,0.000000</coordinates>
      </Point>
    </Placemark>
    <Placemark>
      <name>EVANGELICAL CHRISTIAN SCHOOL</name>
      <styleUrl>#IconStyle00</styleUrl>
      <Snippet></Snippet>
      <Point>
        <extrude>0</extrude>
        <altitudeMode>relativeToGround</altitudeMode>
        <coordinates> -87.648290,41.727782,0.000000</coordinates>
      </Point>
    </Placemark>
    <Placemark>
      <name>CHRIST THE KING</name>
      <styleUrl>#IconStyle00</styleUrl>
      <Snippet></Snippet>
      <Point>
        <extrude>0</extrude>
        <altitudeMode>relativeToGround</altitudeMode>
        <coordinates> -87.674520,41.725268,0.000000</coordinates>
      </Point>
    </Placemark>
    <Placemark>
      <name>ST CHRISTINA</name>
      <styleUrl>#IconStyle00</styleUrl>
      <Snippet></Snippet>
      <Point>
        <extrude>0</extrude>
        <altitudeMode>relativeToGround</altitudeMode>
        <coordinates> -87.705742,41.693318,0.000000</coordinates>
      </Point>
    </Placemark>
    <Placemark>
      <name>HUMBOLDT COMM CHRISTIAN SCHOOL</name>
      <styleUrl>#IconStyle00</styleUrl>
      <Snippet></Snippet>
      <Point>
        <extrude>0</extrude>
        <altitudeMode>relativeToGround</altitudeMode>
        <coordinates> -87.702025,41.915314,0.000000</coordinates>
      </Point>
    </Placemark>
    <Placemark>
      <name>ST CLEMENT SCHOOL</name>
      <styleUrl>#IconStyle00</styleUrl>
      <Snippet></Snippet>
      <Point>
        <extrude>0</extrude>
        <altitudeMode>relativeToGround</altitudeMode>
        <coordinates> -87.646438,41.928640,0.000000</coordinates>
      </Point>
    </Placemark>
    <Placemark>
      <name>ST CLOTILDE ELEMENTARY SCHOOL</name>
      <styleUrl>#IconStyle00</styleUrl>
      <Snippet></Snippet>
      <Point>
        <extrude>0</extrude>
        <altitudeMode>relativeToGround</altitudeMode>
        <coordinates> -87.616985,41.741950,0.000000</coordinates>
      </Point>
    </Placemark>
    <Placemark>
      <name>OLADIJI DAY CARE</name>
      <styleUrl>#IconStyle00</styleUrl>
      <Snippet></Snippet>
      <Point>
        <extrude>0</extrude>
        <altitudeMode>relativeToGround</altitudeMode>
        <coordinates> -87.697658,41.600775,0.000000</coordinates>
      </Point>
    </Placemark>
    <Placemark>
      <name>ST CONSTANCE SCHOOL</name>
      <styleUrl>#IconStyle00</styleUrl>
      <Snippet></Snippet>
      <Point>
        <extrude>0</extrude>
        <altitudeMode>relativeToGround</altitudeMode>
        <coordinates> -87.774828,41.970287,0.000000</coordinates>
      </Point>
    </Placemark>
    <Placemark>
      <name>ST CORNELIUS</name>
      <styleUrl>#IconStyle00</styleUrl>
      <Snippet></Snippet>
      <Point>
        <extrude>0</extrude>
        <altitudeMode>relativeToGround</altitudeMode>
        <coordinates> -87.762937,41.975873,0.000000</coordinates>
      </Point>
    </Placemark>
    <Placemark>
      <name>MCKINLEY HIGHLAND CENTER</name>
      <styleUrl>#IconStyle00</styleUrl>
      <Snippet></Snippet>
      <Point>
        <extrude>0</extrude>
        <altitudeMode>relativeToGround</altitudeMode>
        <coordinates> -87.672907,41.740644,0.000000</coordinates>
      </Point>
    </Placemark>
    <Placemark>
      <name>ST DANIEL THE PROPHET SCHOOL</name>
      <styleUrl>#IconStyle00</styleUrl>
      <Snippet></Snippet>
      <Point>
        <extrude>0</extrude>
        <altitudeMode>relativeToGround</altitudeMode>
        <coordinates> -87.787990,41.794829,0.000000</coordinates>
      </Point>
    </Placemark>
    <Placemark>
      <name>ST DOROTHY</name>
      <styleUrl>#IconStyle00</styleUrl>
      <Snippet></Snippet>
      <Point>
        <extrude>0</extrude>
        <altitudeMode>relativeToGround</altitudeMode>
        <coordinates> -87.612563,41.753585,0.000000</coordinates>
      </Point>
    </Placemark>
    <Placemark>
      <name>ST EDWARD</name>
      <styleUrl>#IconStyle00</styleUrl>
      <Snippet></Snippet>
      <Point>
        <extrude>0</extrude>
        <altitudeMode>relativeToGround</altitudeMode>
        <coordinates> -87.738223,41.962653,0.000000</coordinates>
      </Point>
    </Placemark>
    <Placemark>
      <name>ST ELIZABETH</name>
      <styleUrl>#IconStyle00</styleUrl>
      <Snippet></Snippet>
      <Point>
        <extrude>0</extrude>
        <altitudeMode>relativeToGround</altitudeMode>
        <coordinates> -87.624751,41.820330,0.000000</coordinates>
      </Point>
    </Placemark>
    <Placemark>
      <name>EPIPHANY SCHOOL</name>
      <styleUrl>#IconStyle00</styleUrl>
      <Snippet></Snippet>
      <Point>
        <extrude>0</extrude>
        <altitudeMode>relativeToGround</altitudeMode>
        <coordinates> -87.730290,41.846000,0.000000</coordinates>
      </Point>
    </Placemark>
    <Placemark>
      <name>ST ETHELREDA SCHOOL</name>
      <styleUrl>#IconStyle00</styleUrl>
      <Snippet></Snippet>
      <Point>
        <extrude>0</extrude>
        <altitudeMode>relativeToGround</altitudeMode>
        <coordinates> -87.665466,41.734702,0.000000</coordinates>
      </Point>
    </Placemark>
    <Placemark>
      <name>ST EUGENE</name>
      <styleUrl>#IconStyle00</styleUrl>
      <Snippet></Snippet>
      <Point>
        <extrude>0</extrude>
        <altitudeMode>relativeToGround</altitudeMode>
        <coordinates> -87.825059,41.974077,0.000000</coordinates>
      </Point>
    </Placemark>
    <Placemark>
      <name>ST FELICITAS</name>
      <styleUrl>#IconStyle00</styleUrl>
      <Snippet></Snippet>
      <Point>
        <extrude>0</extrude>
        <altitudeMode>relativeToGround</altitudeMode>
        <coordinates> -87.587979,41.743261,0.000000</coordinates>
      </Point>
    </Placemark>
    <Placemark>
      <name>ST FERDINAND SCHOOL</name>
      <styleUrl>#IconStyle00</styleUrl>
      <Snippet></Snippet>
      <Point>
        <extrude>0</extrude>
        <altitudeMode>relativeToGround</altitudeMode>
        <coordinates> -87.774954,41.937073,0.000000</coordinates>
      </Point>
    </Placemark>
    <Placemark>
      <name>PARAGON MONUMENT</name>
      <styleUrl>#IconStyle00</styleUrl>
      <Snippet></Snippet>
      <Point>
        <extrude>0</extrude>
        <altitudeMode>relativeToGround</altitudeMode>
        <coordinates> -87.606258,41.622183,0.000000</coordinates>
      </Point>
    </Placemark>
    <Placemark>
      <name>MCKINLEY SCHOOL EAST CAMPUS</name>
      <styleUrl>#IconStyle00</styleUrl>
      <Snippet></Snippet>
      <Point>
        <extrude>0</extrude>
        <altitudeMode>relativeToGround</altitudeMode>
        <coordinates> -87.559341,41.735457,0.000000</coordinates>
      </Point>
    </Placemark>
    <Placemark>
      <name>POPE JOHN PAUL II CATHOLIC SCHOOL</name>
      <styleUrl>#IconStyle00</styleUrl>
      <Snippet></Snippet>
      <Point>
        <extrude>0</extrude>
        <altitudeMode>relativeToGround</altitudeMode>
        <coordinates> -87.698091,41.814776,0.000000</coordinates>
      </Point>
    </Placemark>
    <Placemark>
      <name>ST FLORIAN</name>
      <styleUrl>#IconStyle00</styleUrl>
      <Snippet></Snippet>
      <Point>
        <extrude>0</extrude>
        <altitudeMode>relativeToGround</altitudeMode>
        <coordinates> -87.547137,41.657028,0.000000</coordinates>
      </Point>
    </Placemark>
    <Placemark>
      <name>ST FRANCIS BORGIA SCHOOL</name>
      <styleUrl>#IconStyle00</styleUrl>
      <Snippet></Snippet>
      <Point>
        <extrude>0</extrude>
        <altitudeMode>relativeToGround</altitudeMode>
        <coordinates> -87.829044,41.944393,0.000000</coordinates>
      </Point>
    </Placemark>
    <Placemark>
      <name>ST GABRIEL</name>
      <styleUrl>#IconStyle00</styleUrl>
      <Snippet></Snippet>
      <Point>
        <extrude>0</extrude>
        <altitudeMode>relativeToGround</altitudeMode>
        <coordinates> -87.641081,41.812604,0.000000</coordinates>
      </Point>
    </Placemark>
    <Placemark>
      <name>ST GALL</name>
      <styleUrl>#IconStyle00</styleUrl>
      <Snippet></Snippet>
      <Point>
        <extrude>0</extrude>
        <altitudeMode>relativeToGround</altitudeMode>
        <coordinates> -87.704779,41.793437,0.000000</coordinates>
      </Point>
    </Placemark>
    <Placemark>
      <name>ST GENEVIEVE SCHOOL</name>
      <styleUrl>#IconStyle00</styleUrl>
      <Snippet></Snippet>
      <Point>
        <extrude>0</extrude>
        <altitudeMode>relativeToGround</altitudeMode>
        <coordinates> -87.748630,41.925161,0.000000</coordinates>
      </Point>
    </Placemark>
    <Placemark>
      <name>VIVIAN E SUMMERS CHILD DEV PREP</name>
      <styleUrl>#IconStyle00</styleUrl>
      <Snippet></Snippet>
      <Point>
        <extrude>0</extrude>
        <altitudeMode>relativeToGround</altitudeMode>
        <coordinates> -87.621848,41.689879,0.000000</coordinates>
      </Point>
    </Placemark>
    <Placemark>
      <name>CHILDRENS CHRISTIAN LEARNING CTR</name>
      <styleUrl>#IconStyle00</styleUrl>
      <Snippet></Snippet>
      <Point>
        <extrude>0</extrude>
        <altitudeMode>relativeToGround</altitudeMode>
        <coordinates> -88.054859,41.998995,0.000000</coordinates>
      </Point>
    </Placemark>
    <Placemark>
      <name>NORTHSIDE CATHOLIC ACADEMY</name>
      <styleUrl>#IconStyle00</styleUrl>
      <Snippet></Snippet>
      <Point>
        <extrude>0</extrude>
        <altitudeMode>relativeToGround</altitudeMode>
        <coordinates> -87.665295,41.994910,0.000000</coordinates>
      </Point>
    </Placemark>
    <Placemark>
      <name>GOOD SHEPHERD SCHOOL</name>
      <styleUrl>#IconStyle00</styleUrl>
      <Snippet></Snippet>
      <Point>
        <extrude>0</extrude>
        <altitudeMode>relativeToGround</altitudeMode>
        <coordinates> -87.732992,41.841533,0.000000</coordinates>
      </Point>
    </Placemark>
    <Placemark>
      <name>ST HELEN SCHOOL</name>
      <styleUrl>#IconStyle00</styleUrl>
      <Snippet></Snippet>
      <Point>
        <extrude>0</extrude>
        <altitudeMode>relativeToGround</altitudeMode>
        <coordinates> -87.685186,41.899407,0.000000</coordinates>
      </Point>
    </Placemark>
    <Placemark>
      <name>ST HELENA OF THE CROSS</name>
      <styleUrl>#IconStyle00</styleUrl>
      <Snippet></Snippet>
      <Point>
        <extrude>0</extrude>
        <altitudeMode>relativeToGround</altitudeMode>
        <coordinates> -87.636851,41.710219,0.000000</coordinates>
      </Point>
    </Placemark>
    <Placemark>
      <name>NORTHSIDE CATHOLIC ACADEMY</name>
      <styleUrl>#IconStyle00</styleUrl>
      <Snippet></Snippet>
      <Point>
        <extrude>0</extrude>
        <altitudeMode>relativeToGround</altitudeMode>
        <coordinates> -87.682522,41.996843,0.000000</coordinates>
      </Point>
    </Placemark>
    <Placemark>
      <name>ST HILARY SCHOOL</name>
      <styleUrl>#IconStyle00</styleUrl>
      <Snippet></Snippet>
      <Point>
        <extrude>0</extrude>
        <altitudeMode>relativeToGround</altitudeMode>
        <coordinates> -87.697947,41.983188,0.000000</coordinates>
      </Point>
    </Placemark>
    <Placemark>
      <name>HOLY ANGELS SCHOOL</name>
      <styleUrl>#IconStyle00</styleUrl>
      <Snippet></Snippet>
      <Point>
        <extrude>0</extrude>
        <altitudeMode>relativeToGround</altitudeMode>
        <coordinates> -87.612535,41.822681,0.000000</coordinates>
      </Point>
    </Placemark>
    <Placemark>
      <name>CHRIST OUR SAVIOR EAST CAMPUS</name>
      <styleUrl>#IconStyle00</styleUrl>
      <Snippet></Snippet>
      <Point>
        <extrude>0</extrude>
        <altitudeMode>relativeToGround</altitudeMode>
        <coordinates> -87.534214,41.612053,0.000000</coordinates>
      </Point>
    </Placemark>
    <Placemark>
      <name>PUI TAK CHRISTIAN SCHOOL</name>
      <styleUrl>#IconStyle00</styleUrl>
      <Snippet></Snippet>
      <Point>
        <extrude>0</extrude>
        <altitudeMode>relativeToGround</altitudeMode>
        <coordinates> -87.631973,41.850927,0.000000</coordinates>
      </Point>
    </Placemark>
    <Placemark>
      <name>ST HYACINTH</name>
      <styleUrl>#IconStyle00</styleUrl>
      <Snippet></Snippet>
      <Point>
        <extrude>0</extrude>
        <altitudeMode>relativeToGround</altitudeMode>
        <coordinates> -87.718847,41.932811,0.000000</coordinates>
      </Point>
    </Placemark>
    <Placemark>
      <name>MISERICORDIA HOME SOUTH</name>
      <styleUrl>#IconStyle00</styleUrl>
      <Snippet></Snippet>
      <Point>
        <extrude>0</extrude>
        <altitudeMode>relativeToGround</altitudeMode>
        <coordinates> -87.697399,41.808226,0.000000</coordinates>
      </Point>
    </Placemark>
    <Placemark>
      <name>ST JAMES SCHOOL</name>
      <styleUrl>#IconStyle00</styleUrl>
      <Snippet></Snippet>
      <Point>
        <extrude>0</extrude>
        <altitudeMode>relativeToGround</altitudeMode>
        <coordinates> -87.625222,41.841366,0.000000</coordinates>
      </Point>
    </Placemark>
    <Placemark>
      <name>NORTHSIDE CATHOLIC ACADEMY</name>
      <styleUrl>#IconStyle00</styleUrl>
      <Snippet></Snippet>
      <Point>
        <extrude>0</extrude>
        <altitudeMode>relativeToGround</altitudeMode>
        <coordinates> -87.661322,41.982845,0.000000</coordinates>
      </Point>
    </Placemark>
    <Placemark>
      <name>IMMACULATE HEART OF MARY</name>
      <styleUrl>#IconStyle00</styleUrl>
      <Snippet></Snippet>
      <Point>
        <extrude>0</extrude>
        <altitudeMode>relativeToGround</altitudeMode>
        <coordinates> -87.710397,41.951440,0.000000</coordinates>
      </Point>
    </Placemark>
    <Placemark>
      <name>LITTLE HANDS LEARNING CENTER</name>
      <styleUrl>#IconStyle00</styleUrl>
      <Snippet></Snippet>
      <Point>
        <extrude>0</extrude>
        <altitudeMode>relativeToGround</altitudeMode>
        <coordinates> -87.679783,41.691789,0.000000</coordinates>
      </Point>
    </Placemark>
    <Placemark>
      <name>IMMACULATE CONCEPTION SCHOOL</name>
      <styleUrl>#IconStyle00</styleUrl>
      <Snippet></Snippet>
      <Point>
        <extrude>0</extrude>
        <altitudeMode>relativeToGround</altitudeMode>
        <coordinates> -87.808822,41.986733,0.000000</coordinates>
      </Point>
    </Placemark>
    <Placemark>
      <name>ST THERESA SCHOOL</name>
      <styleUrl>#IconStyle00</styleUrl>
      <Snippet></Snippet>
      <Point>
        <extrude>0</extrude>
        <altitudeMode>relativeToGround</altitudeMode>
        <coordinates> -88.041296,42.119643,0.000000</coordinates>
      </Point>
    </Placemark>
    <Placemark>
      <name>ST THOMAS OF VILLANOVA</name>
      <styleUrl>#IconStyle00</styleUrl>
      <Snippet></Snippet>
      <Point>
        <extrude>0</extrude>
        <altitudeMode>relativeToGround</altitudeMode>
        <coordinates> -88.014115,42.116719,0.000000</coordinates>
      </Point>
    </Placemark>
    <Placemark>
      <name>ST THOMAS OF CANTERBURY</name>
      <styleUrl>#IconStyle00</styleUrl>
      <Snippet></Snippet>
      <Point>
        <extrude>0</extrude>
        <altitudeMode>relativeToGround</altitudeMode>
        <coordinates> -87.656261,41.970763,0.000000</coordinates>
      </Point>
    </Placemark>
    <Placemark>
      <name>ST THOMAS MORE SCHOOL</name>
      <styleUrl>#IconStyle00</styleUrl>
      <Snippet></Snippet>
      <Point>
        <extrude>0</extrude>
        <altitudeMode>relativeToGround</altitudeMode>
        <coordinates> -87.692516,41.745817,0.000000</coordinates>
      </Point>
    </Placemark>